{
"type": "FeatureCollection",
"name": "airports-extended-geo-uk-only",
"crs": { "type": "name", "properties": { "name": "urn:ogc:def:crs:OGC:1.3:CRS84" } },
"features": [
{ "type": "Feature", "properties": { "airport_id": 465, "name": "Belfast International Airport", "city": "Belfast", "country": "United Kingdom", "iata": "BFS", "icao": "EGAA", "lat": 54.657501220699999, "long": -6.2158298492399995, "alt": 268, "tz": "0", "dst": "E", "tz_database": "Europe/London", "type": "airport", "source": "OurAirports" }, "geometry": { "type": "Point", "coordinates": [ -6.215829849239999, 54.657501220699999 ] } },
{ "type": "Feature", "properties": { "airport_id": 466, "name": "St Angelo Airport", "city": "Enniskillen", "country": "United Kingdom", "iata": "ENK", "icao": "EGAB", "lat": 54.398899078369141, "long": -7.651669979095459, "alt": 155, "tz": "0", "dst": "E", "tz_database": "Europe/London", "type": "airport", "source": "OurAirports" }, "geometry": { "type": "Point", "coordinates": [ -7.651669979095459, 54.398899078369141 ] } },
{ "type": "Feature", "properties": { "airport_id": 467, "name": "George Best Belfast City Airport", "city": "Belfast", "country": "United Kingdom", "iata": "BHD", "icao": "EGAC", "lat": 54.618099212646484, "long": -5.872499942779541, "alt": 15, "tz": "0", "dst": "E", "tz_database": "Europe/London", "type": "airport", "source": "OurAirports" }, "geometry": { "type": "Point", "coordinates": [ -5.872499942779541, 54.618099212646484 ] } },
{ "type": "Feature", "properties": { "airport_id": 468, "name": "City of Derry Airport", "city": "Londonderry", "country": "United Kingdom", "iata": "LDY", "icao": "EGAE", "lat": 55.042800903320312, "long": -7.1611099243164062, "alt": 22, "tz": "0", "dst": "E", "tz_database": "Europe/London", "type": "airport", "source": "OurAirports" }, "geometry": { "type": "Point", "coordinates": [ -7.161109924316406, 55.042800903320312 ] } },
{ "type": "Feature", "properties": { "airport_id": 469, "name": "Birmingham International Airport", "city": "Birmingham", "country": "United Kingdom", "iata": "BHX", "icao": "EGBB", "lat": 52.453899383499994, "long": -1.7480299472800001, "alt": 327, "tz": "0", "dst": "E", "tz_database": "Europe/London", "type": "airport", "source": "OurAirports" }, "geometry": { "type": "Point", "coordinates": [ -1.74802994728, 52.453899383499994 ] } },
{ "type": "Feature", "properties": { "airport_id": 470, "name": "Coventry Airport", "city": "Coventry", "country": "United Kingdom", "iata": "CVT", "icao": "EGBE", "lat": 52.369701385500001, "long": -1.4797199964499999, "alt": 267, "tz": "0", "dst": "E", "tz_database": "Europe/London", "type": "airport", "source": "OurAirports" }, "geometry": { "type": "Point", "coordinates": [ -1.47971999645, 52.369701385500001 ] } },
{ "type": "Feature", "properties": { "airport_id": 471, "name": "Leicester Airport", "city": "Leicester", "country": "United Kingdom", "iata": "\\N", "icao": "EGBG", "lat": 52.607799530029297, "long": -1.0319399833679199, "alt": 469, "tz": "0", "dst": "E", "tz_database": "Europe/London", "type": "airport", "source": "OurAirports" }, "geometry": { "type": "Point", "coordinates": [ -1.03193998336792, 52.607799530029297 ] } },
{ "type": "Feature", "properties": { "airport_id": 472, "name": "Gloucestershire Airport", "city": "Golouchestershire", "country": "United Kingdom", "iata": "GLO", "icao": "EGBJ", "lat": 51.894199371337891, "long": -2.1672201156616211, "alt": 101, "tz": "0", "dst": "E", "tz_database": "Europe/London", "type": "airport", "source": "OurAirports" }, "geometry": { "type": "Point", "coordinates": [ -2.167220115661621, 51.894199371337891 ] } },
{ "type": "Feature", "properties": { "airport_id": 474, "name": "Wolverhampton Halfpenny Green Airport", "city": "Halfpenny Green", "country": "United Kingdom", "iata": "\\N", "icao": "EGBO", "lat": 52.517501831054688, "long": -2.2594399452209473, "alt": 283, "tz": "0", "dst": "E", "tz_database": "Europe/London", "type": "airport", "source": "OurAirports" }, "geometry": { "type": "Point", "coordinates": [ -2.259439945220947, 52.517501831054688 ] } },
{ "type": "Feature", "properties": { "airport_id": 475, "name": "Cotswold Airport", "city": "Pailton", "country": "United Kingdom", "iata": "GBA", "icao": "EGBP", "lat": 51.668095, "long": -2.05694, "alt": 433, "tz": "0", "dst": "E", "tz_database": "Europe/London", "type": "airport", "source": "OurAirports" }, "geometry": { "type": "Point", "coordinates": [ -2.05694, 51.668095 ] } },
{ "type": "Feature", "properties": { "airport_id": 476, "name": "Turweston Airport", "city": "Turweston", "country": "United Kingdom", "iata": "\\N", "icao": "EGBT", "lat": 52.040798187299998, "long": -1.0955599546400001, "alt": 448, "tz": "0", "dst": "E", "tz_database": "Europe/London", "type": "airport", "source": "OurAirports" }, "geometry": { "type": "Point", "coordinates": [ -1.09555995464, 52.040798187299998 ] } },
{ "type": "Feature", "properties": { "airport_id": 477, "name": "Wellesbourne Mountford Airport", "city": "Wellesbourne", "country": "United Kingdom", "iata": "\\N", "icao": "EGBW", "lat": 52.19219970703125, "long": -1.6144399642944336, "alt": 159, "tz": "0", "dst": "E", "tz_database": "Europe/London", "type": "airport", "source": "OurAirports" }, "geometry": { "type": "Point", "coordinates": [ -1.614439964294434, 52.19219970703125 ] } },
{ "type": "Feature", "properties": { "airport_id": 478, "name": "Manchester Airport", "city": "Manchester", "country": "United Kingdom", "iata": "MAN", "icao": "EGCC", "lat": 53.35369873046875, "long": -2.2749500274658203, "alt": 257, "tz": "0", "dst": "E", "tz_database": "Europe/London", "type": "airport", "source": "OurAirports" }, "geometry": { "type": "Point", "coordinates": [ -2.27495002746582, 53.35369873046875 ] } },
{ "type": "Feature", "properties": { "airport_id": 479, "name": "Manchester Woodford Airport", "city": "Woodfort", "country": "United Kingdom", "iata": "\\N", "icao": "EGCD", "lat": 53.3381, "long": -2.14889, "alt": 295, "tz": "0", "dst": "E", "tz_database": "Europe/London", "type": "airport", "source": "OurAirports" }, "geometry": { "type": "Point", "coordinates": [ -2.14889, 53.3381 ] } },
{ "type": "Feature", "properties": { "airport_id": 480, "name": "Royal Marines Base Chivenor Airport", "city": "Chivenor", "country": "United Kingdom", "iata": "\\N", "icao": "EGDC", "lat": 51.087200164794922, "long": -4.1503400802612305, "alt": 27, "tz": "0", "dst": "E", "tz_database": "Europe/London", "type": "airport", "source": "OurAirports" }, "geometry": { "type": "Point", "coordinates": [ -4.15034008026123, 51.087200164794922 ] } },
{ "type": "Feature", "properties": { "airport_id": 481, "name": "Newquay Cornwall Airport", "city": "Newquai", "country": "United Kingdom", "iata": "NQY", "icao": "EGHQ", "lat": 50.440601348876953, "long": -4.9954099655151367, "alt": 390, "tz": "0", "dst": "E", "tz_database": "Europe/London", "type": "airport", "source": "OurAirports" }, "geometry": { "type": "Point", "coordinates": [ -4.995409965515137, 50.440601348876953 ] } },
{ "type": "Feature", "properties": { "airport_id": 482, "name": "RAF Lyneham", "city": "Lyneham", "country": "United Kingdom", "iata": "LYE", "icao": "EGDL", "lat": 51.5051, "long": -1.99343, "alt": 513, "tz": "0", "dst": "E", "tz_database": "Europe/London", "type": "airport", "source": "OurAirports" }, "geometry": { "type": "Point", "coordinates": [ -1.99343, 51.5051 ] } },
{ "type": "Feature", "properties": { "airport_id": 483, "name": "MoD Boscombe Down Airport", "city": "Boscombe Down", "country": "United Kingdom", "iata": "\\N", "icao": "EGDM", "lat": 51.152198791503906, "long": -1.7474100589752197, "alt": 407, "tz": "0", "dst": "E", "tz_database": "Europe/London", "type": "airport", "source": "OurAirports" }, "geometry": { "type": "Point", "coordinates": [ -1.74741005897522, 51.152198791503906 ] } },
{ "type": "Feature", "properties": { "airport_id": 484, "name": "RNAS Culdrose", "city": "Culdrose", "country": "United Kingdom", "iata": "\\N", "icao": "EGDR", "lat": 50.086101531982422, "long": -5.2557101249694824, "alt": 267, "tz": "0", "dst": "E", "tz_database": "Europe/London", "type": "airport", "source": "OurAirports" }, "geometry": { "type": "Point", "coordinates": [ -5.255710124969482, 50.086101531982422 ] } },
{ "type": "Feature", "properties": { "airport_id": 485, "name": "MoD St. Athan", "city": "St. Athan", "country": "United Kingdom", "iata": "\\N", "icao": "EGDX", "lat": 51.4048, "long": -3.43575, "alt": 163, "tz": "0", "dst": "E", "tz_database": "Europe/London", "type": "airport", "source": "OurAirports" }, "geometry": { "type": "Point", "coordinates": [ -3.43575, 51.4048 ] } },
{ "type": "Feature", "properties": { "airport_id": 486, "name": "RNAS Yeovilton", "city": "Yeovilton", "country": "United Kingdom", "iata": "YEO", "icao": "EGDY", "lat": 51.0093994140625, "long": -2.6388199329376221, "alt": 75, "tz": "0", "dst": "E", "tz_database": "Europe/London", "type": "airport", "source": "OurAirports" }, "geometry": { "type": "Point", "coordinates": [ -2.638819932937622, 51.0093994140625 ] } },
{ "type": "Feature", "properties": { "airport_id": 487, "name": "Haverfordwest Airport", "city": "Haverfordwest", "country": "United Kingdom", "iata": "HAW", "icao": "EGFE", "lat": 51.833099365234375, "long": -4.9611101150512695, "alt": 159, "tz": "0", "dst": "E", "tz_database": "Europe/London", "type": "airport", "source": "OurAirports" }, "geometry": { "type": "Point", "coordinates": [ -4.96111011505127, 51.833099365234375 ] } },
{ "type": "Feature", "properties": { "airport_id": 488, "name": "Cardiff International Airport", "city": "Cardiff", "country": "United Kingdom", "iata": "CWL", "icao": "EGFF", "lat": 51.396701812744141, "long": -3.343329906463623, "alt": 220, "tz": "0", "dst": "E", "tz_database": "Europe/London", "type": "airport", "source": "OurAirports" }, "geometry": { "type": "Point", "coordinates": [ -3.343329906463623, 51.396701812744141 ] } },
{ "type": "Feature", "properties": { "airport_id": 489, "name": "Swansea Airport", "city": "Swansea", "country": "United Kingdom", "iata": "SWS", "icao": "EGFH", "lat": 51.605300903320312, "long": -4.0678300857543945, "alt": 299, "tz": "0", "dst": "E", "tz_database": "Europe/London", "type": "airport", "source": "OurAirports" }, "geometry": { "type": "Point", "coordinates": [ -4.067830085754395, 51.605300903320312 ] } },
{ "type": "Feature", "properties": { "airport_id": 490, "name": "Bristol Airport", "city": "Bristol", "country": "United Kingdom", "iata": "BRS", "icao": "EGGD", "lat": 51.382702, "long": -2.71909, "alt": 622, "tz": "0", "dst": "E", "tz_database": "Europe/London", "type": "airport", "source": "OurAirports" }, "geometry": { "type": "Point", "coordinates": [ -2.71909, 51.382702 ] } },
{ "type": "Feature", "properties": { "airport_id": 491, "name": "Liverpool John Lennon Airport", "city": "Liverpool", "country": "United Kingdom", "iata": "LPL", "icao": "EGGP", "lat": 53.333599090576172, "long": -2.8497200012207031, "alt": 80, "tz": "0", "dst": "E", "tz_database": "Europe/London", "type": "airport", "source": "OurAirports" }, "geometry": { "type": "Point", "coordinates": [ -2.849720001220703, 53.333599090576172 ] } },
{ "type": "Feature", "properties": { "airport_id": 492, "name": "London Luton Airport", "city": "London", "country": "United Kingdom", "iata": "LTN", "icao": "EGGW", "lat": 51.874698638916016, "long": -0.36833301186561584, "alt": 526, "tz": "0", "dst": "E", "tz_database": "Europe/London", "type": "airport", "source": "OurAirports" }, "geometry": { "type": "Point", "coordinates": [ -0.368333011865616, 51.874698638916016 ] } },
{ "type": "Feature", "properties": { "airport_id": 493, "name": "Plymouth City Airport", "city": "Plymouth", "country": "United Kingdom", "iata": "PLH", "icao": "EGHD", "lat": 50.422798, "long": -4.10583, "alt": 476, "tz": "0", "dst": "E", "tz_database": "Europe/London", "type": "airport", "source": "OurAirports" }, "geometry": { "type": "Point", "coordinates": [ -4.10583, 50.422798 ] } },
{ "type": "Feature", "properties": { "airport_id": 494, "name": "Bournemouth Airport", "city": "Bournemouth", "country": "United Kingdom", "iata": "BOH", "icao": "EGHH", "lat": 50.779998779296875, "long": -1.8424999713897705, "alt": 38, "tz": "0", "dst": "E", "tz_database": "Europe/London", "type": "airport", "source": "OurAirports" }, "geometry": { "type": "Point", "coordinates": [ -1.842499971389771, 50.779998779296875 ] } },
{ "type": "Feature", "properties": { "airport_id": 495, "name": "Southampton Airport", "city": "Southampton", "country": "United Kingdom", "iata": "SOU", "icao": "EGHI", "lat": 50.950298309326172, "long": -1.3567999601364136, "alt": 44, "tz": "0", "dst": "E", "tz_database": "Europe/London", "type": "airport", "source": "OurAirports" }, "geometry": { "type": "Point", "coordinates": [ -1.356799960136414, 50.950298309326172 ] } },
{ "type": "Feature", "properties": { "airport_id": 496, "name": "Lasham Airport", "city": "Lasham", "country": "United Kingdom", "iata": "QLA", "icao": "EGHL", "lat": 51.187198638916016, "long": -1.0334999561309814, "alt": 618, "tz": "0", "dst": "E", "tz_database": "Europe/London", "type": "airport", "source": "OurAirports" }, "geometry": { "type": "Point", "coordinates": [ -1.033499956130981, 51.187198638916016 ] } },
{ "type": "Feature", "properties": { "airport_id": 500, "name": "Shoreham Airport", "city": "Shoreham By Sea", "country": "United Kingdom", "iata": "ESH", "icao": "EGKA", "lat": 50.835602, "long": -0.297222, "alt": 7, "tz": "0", "dst": "E", "tz_database": "Europe/London", "type": "airport", "source": "OurAirports" }, "geometry": { "type": "Point", "coordinates": [ -0.297222, 50.835602 ] } },
{ "type": "Feature", "properties": { "airport_id": 501, "name": "London Biggin Hill Airport", "city": "Biggin Hill", "country": "United Kingdom", "iata": "BQH", "icao": "EGKB", "lat": 51.330799102799993, "long": 0.032499998807899999, "alt": 598, "tz": "0", "dst": "E", "tz_database": "Europe/London", "type": "airport", "source": "OurAirports" }, "geometry": { "type": "Point", "coordinates": [ 0.0324999988079, 51.330799102799993 ] } },
{ "type": "Feature", "properties": { "airport_id": 502, "name": "London Gatwick Airport", "city": "London", "country": "United Kingdom", "iata": "LGW", "icao": "EGKK", "lat": 51.148102, "long": -0.190278, "alt": 202, "tz": "0", "dst": "E", "tz_database": "Europe/London", "type": "airport", "source": "OurAirports" }, "geometry": { "type": "Point", "coordinates": [ -0.190278, 51.148102 ] } },
{ "type": "Feature", "properties": { "airport_id": 503, "name": "London City Airport", "city": "London", "country": "United Kingdom", "iata": "LCY", "icao": "EGLC", "lat": 51.505299, "long": 0.055278, "alt": 19, "tz": "0", "dst": "E", "tz_database": "Europe/London", "type": "airport", "source": "OurAirports" }, "geometry": { "type": "Point", "coordinates": [ 0.055278, 51.505299 ] } },
{ "type": "Feature", "properties": { "airport_id": 504, "name": "Farnborough Airport", "city": "Farnborough", "country": "United Kingdom", "iata": "FAB", "icao": "EGLF", "lat": 51.275798797599997, "long": -0.77633297443399996, "alt": 238, "tz": "0", "dst": "E", "tz_database": "Europe/London", "type": "airport", "source": "OurAirports" }, "geometry": { "type": "Point", "coordinates": [ -0.776332974434, 51.275798797599997 ] } },
{ "type": "Feature", "properties": { "airport_id": 505, "name": "Chalgrove Airport", "city": "Chalsgrove", "country": "United Kingdom", "iata": "\\N", "icao": "EGLJ", "lat": 51.676101684570312, "long": -1.0808299779891968, "alt": 240, "tz": "0", "dst": "E", "tz_database": "Europe/London", "type": "airport", "source": "OurAirports" }, "geometry": { "type": "Point", "coordinates": [ -1.080829977989197, 51.676101684570312 ] } },
{ "type": "Feature", "properties": { "airport_id": 506, "name": "Blackbushe Airport", "city": "Blackbushe", "country": "United Kingdom", "iata": "BBS", "icao": "EGLK", "lat": 51.323898315429688, "long": -0.8475000262260437, "alt": 325, "tz": "0", "dst": "E", "tz_database": "Europe/London", "type": "airport", "source": "OurAirports" }, "geometry": { "type": "Point", "coordinates": [ -0.847500026226044, 51.323898315429688 ] } },
{ "type": "Feature", "properties": { "airport_id": 507, "name": "London Heathrow Airport", "city": "London", "country": "United Kingdom", "iata": "LHR", "icao": "EGLL", "lat": 51.4706, "long": -0.461941, "alt": 83, "tz": "0", "dst": "E", "tz_database": "Europe/London", "type": "airport", "source": "OurAirports" }, "geometry": { "type": "Point", "coordinates": [ -0.461941, 51.4706 ] } },
{ "type": "Feature", "properties": { "airport_id": 508, "name": "Southend Airport", "city": "Southend", "country": "United Kingdom", "iata": "SEN", "icao": "EGMC", "lat": 51.571399688720703, "long": 0.69555598497390747, "alt": 49, "tz": "0", "dst": "E", "tz_database": "Europe/London", "type": "airport", "source": "OurAirports" }, "geometry": { "type": "Point", "coordinates": [ 0.695555984973907, 51.571399688720703 ] } },
{ "type": "Feature", "properties": { "airport_id": 509, "name": "Lydd Airport", "city": "Lydd", "country": "United Kingdom", "iata": "LYX", "icao": "EGMD", "lat": 50.956100463867188, "long": 0.93916702270507812, "alt": 13, "tz": "0", "dst": "E", "tz_database": "Europe/London", "type": "airport", "source": "OurAirports" }, "geometry": { "type": "Point", "coordinates": [ 0.939167022705078, 50.956100463867188 ] } },
{ "type": "Feature", "properties": { "airport_id": 510, "name": "Kent International Airport", "city": "Manston", "country": "United Kingdom", "iata": "MSE", "icao": "EGMH", "lat": 51.342201, "long": 1.34611, "alt": 178, "tz": "0", "dst": "E", "tz_database": "Europe/London", "type": "airport", "source": "OurAirports" }, "geometry": { "type": "Point", "coordinates": [ 1.34611, 51.342201 ] } },
{ "type": "Feature", "properties": { "airport_id": 511, "name": "Brough Airport", "city": "Brough", "country": "United Kingdom", "iata": "\\N", "icao": "EGNB", "lat": 53.7197, "long": -0.566333, "alt": 12, "tz": "0", "dst": "E", "tz_database": "Europe/London", "type": "airport", "source": "OurAirports" }, "geometry": { "type": "Point", "coordinates": [ -0.566333, 53.7197 ] } },
{ "type": "Feature", "properties": { "airport_id": 512, "name": "Carlisle Airport", "city": "Carlisle", "country": "United Kingdom", "iata": "CAX", "icao": "EGNC", "lat": 54.9375, "long": -2.8091700077056885, "alt": 190, "tz": "0", "dst": "E", "tz_database": "Europe/London", "type": "airport", "source": "OurAirports" }, "geometry": { "type": "Point", "coordinates": [ -2.809170007705688, 54.9375 ] } },
{ "type": "Feature", "properties": { "airport_id": 513, "name": "Retford Gamston Airport", "city": "Repton", "country": "United Kingdom", "iata": "\\N", "icao": "EGNE", "lat": 53.280601501464844, "long": -0.95138901472091675, "alt": 91, "tz": "0", "dst": "E", "tz_database": "Europe/London", "type": "airport", "source": "OurAirports" }, "geometry": { "type": "Point", "coordinates": [ -0.951389014720917, 53.280601501464844 ] } },
{ "type": "Feature", "properties": { "airport_id": 514, "name": "Blackpool International Airport", "city": "Blackpool", "country": "United Kingdom", "iata": "BLK", "icao": "EGNH", "lat": 53.771701812744141, "long": -3.0286099910736084, "alt": 34, "tz": "0", "dst": "E", "tz_database": "Europe/London", "type": "airport", "source": "OurAirports" }, "geometry": { "type": "Point", "coordinates": [ -3.028609991073608, 53.771701812744141 ] } },
{ "type": "Feature", "properties": { "airport_id": 515, "name": "Humberside Airport", "city": "Humberside", "country": "United Kingdom", "iata": "HUY", "icao": "EGNJ", "lat": 53.57440185546875, "long": -0.35083299875259399, "alt": 121, "tz": "0", "dst": "E", "tz_database": "Europe/London", "type": "airport", "source": "OurAirports" }, "geometry": { "type": "Point", "coordinates": [ -0.350832998752594, 53.57440185546875 ] } },
{ "type": "Feature", "properties": { "airport_id": 516, "name": "Barrow Walney Island Airport", "city": "Barrow Island", "country": "United Kingdom", "iata": "BWF", "icao": "EGNL", "lat": 54.1286111, "long": -3.2675, "alt": 173, "tz": "0", "dst": "E", "tz_database": "Europe/London", "type": "airport", "source": "OurAirports" }, "geometry": { "type": "Point", "coordinates": [ -3.2675, 54.1286111 ] } },
{ "type": "Feature", "properties": { "airport_id": 517, "name": "Leeds Bradford Airport", "city": "Leeds", "country": "United Kingdom", "iata": "LBA", "icao": "EGNM", "lat": 53.865898132324219, "long": -1.6605700254440308, "alt": 681, "tz": "0", "dst": "E", "tz_database": "Europe/London", "type": "airport", "source": "OurAirports" }, "geometry": { "type": "Point", "coordinates": [ -1.660570025444031, 53.865898132324219 ] } },
{ "type": "Feature", "properties": { "airport_id": 518, "name": "Warton Airport", "city": "Warton", "country": "United Kingdom", "iata": "WRT", "icao": "EGNO", "lat": 53.745098, "long": -2.88306, "alt": 55, "tz": "0", "dst": "E", "tz_database": "Europe/London", "type": "airport", "source": "OurAirports" }, "geometry": { "type": "Point", "coordinates": [ -2.88306, 53.745098 ] } },
{ "type": "Feature", "properties": { "airport_id": 519, "name": "Hawarden Airport", "city": "Hawarden", "country": "United Kingdom", "iata": "CEG", "icao": "EGNR", "lat": 53.1781005859375, "long": -2.9777801036834717, "alt": 45, "tz": "0", "dst": "E", "tz_database": "Europe/London", "type": "airport", "source": "OurAirports" }, "geometry": { "type": "Point", "coordinates": [ -2.977780103683472, 53.1781005859375 ] } },
{ "type": "Feature", "properties": { "airport_id": 521, "name": "Newcastle Airport", "city": "Newcastle", "country": "United Kingdom", "iata": "NCL", "icao": "EGNT", "lat": 55.037498474121094, "long": -1.6916699409484863, "alt": 266, "tz": "0", "dst": "E", "tz_database": "Europe/London", "type": "airport", "source": "OurAirports" }, "geometry": { "type": "Point", "coordinates": [ -1.691669940948486, 55.037498474121094 ] } },
{ "type": "Feature", "properties": { "airport_id": 522, "name": "Durham Tees Valley Airport", "city": "Teesside", "country": "United Kingdom", "iata": "MME", "icao": "EGNV", "lat": 54.509201049804688, "long": -1.4294099807739258, "alt": 120, "tz": "0", "dst": "E", "tz_database": "Europe/London", "type": "airport", "source": "OurAirports" }, "geometry": { "type": "Point", "coordinates": [ -1.429409980773926, 54.509201049804688 ] } },
{ "type": "Feature", "properties": { "airport_id": 523, "name": "East Midlands Airport", "city": "East Midlands", "country": "United Kingdom", "iata": "EMA", "icao": "EGNX", "lat": 52.8311004639, "long": -1.3280600309399999, "alt": 306, "tz": "0", "dst": "E", "tz_database": "Europe/London", "type": "airport", "source": "OurAirports" }, "geometry": { "type": "Point", "coordinates": [ -1.32806003094, 52.8311004639 ] } },
{ "type": "Feature", "properties": { "airport_id": 524, "name": "Llanbedr Airport", "city": "Llanbedr", "country": "United Kingdom", "iata": "\\N", "icao": "EGOD", "lat": 52.811698913573998, "long": -4.1235799789429004, "alt": 30, "tz": "0", "dst": "E", "tz_database": "Europe/London", "type": "airport", "source": "OurAirports" }, "geometry": { "type": "Point", "coordinates": [ -4.1235799789429, 52.811698913573998 ] } },
{ "type": "Feature", "properties": { "airport_id": 525, "name": "RAF Ternhill", "city": "Ternhill", "country": "United Kingdom", "iata": "\\N", "icao": "EGOE", "lat": 52.871200561523438, "long": -2.533560037612915, "alt": 272, "tz": "0", "dst": "E", "tz_database": "Europe/London", "type": "airport", "source": "OurAirports" }, "geometry": { "type": "Point", "coordinates": [ -2.533560037612915, 52.871200561523438 ] } },
{ "type": "Feature", "properties": { "airport_id": 526, "name": "RAF Shawbury", "city": "Shawbury", "country": "United Kingdom", "iata": "\\N", "icao": "EGOS", "lat": 52.798198699951172, "long": -2.6680400371551514, "alt": 249, "tz": "0", "dst": "E", "tz_database": "Europe/London", "type": "airport", "source": "OurAirports" }, "geometry": { "type": "Point", "coordinates": [ -2.668040037155151, 52.798198699951172 ] } },
{ "type": "Feature", "properties": { "airport_id": 528, "name": "RAF Woodvale", "city": "Woodvale", "country": "United Kingdom", "iata": "\\N", "icao": "EGOW", "lat": 53.5816, "long": -3.05552, "alt": 37, "tz": "0", "dst": "E", "tz_database": "Europe/London", "type": "airport", "source": "OurAirports" }, "geometry": { "type": "Point", "coordinates": [ -3.05552, 53.5816 ] } },
{ "type": "Feature", "properties": { "airport_id": 529, "name": "Kirkwall Airport", "city": "Kirkwall", "country": "United Kingdom", "iata": "KOI", "icao": "EGPA", "lat": 58.957801818847656, "long": -2.9049999713897705, "alt": 50, "tz": "0", "dst": "E", "tz_database": "Europe/London", "type": "airport", "source": "OurAirports" }, "geometry": { "type": "Point", "coordinates": [ -2.904999971389771, 58.957801818847656 ] } },
{ "type": "Feature", "properties": { "airport_id": 530, "name": "Sumburgh Airport", "city": "Sumburgh", "country": "United Kingdom", "iata": "LSI", "icao": "EGPB", "lat": 59.878898620605469, "long": -1.2955600023269653, "alt": 20, "tz": "0", "dst": "E", "tz_database": "Europe/London", "type": "airport", "source": "OurAirports" }, "geometry": { "type": "Point", "coordinates": [ -1.295560002326965, 59.878898620605469 ] } },
{ "type": "Feature", "properties": { "airport_id": 531, "name": "Wick Airport", "city": "Wick", "country": "United Kingdom", "iata": "WIC", "icao": "EGPC", "lat": 58.458900451660156, "long": -3.0930600166320801, "alt": 126, "tz": "0", "dst": "E", "tz_database": "Europe/London", "type": "airport", "source": "OurAirports" }, "geometry": { "type": "Point", "coordinates": [ -3.09306001663208, 58.458900451660156 ] } },
{ "type": "Feature", "properties": { "airport_id": 532, "name": "Aberdeen Dyce Airport", "city": "Aberdeen", "country": "United Kingdom", "iata": "ABZ", "icao": "EGPD", "lat": 57.201900482177734, "long": -2.1977798938751221, "alt": 215, "tz": "0", "dst": "E", "tz_database": "Europe/London", "type": "airport", "source": "OurAirports" }, "geometry": { "type": "Point", "coordinates": [ -2.197779893875122, 57.201900482177734 ] } },
{ "type": "Feature", "properties": { "airport_id": 533, "name": "Inverness Airport", "city": "Inverness", "country": "United Kingdom", "iata": "INV", "icao": "EGPE", "lat": 57.542499542236328, "long": -4.0475001335144043, "alt": 31, "tz": "0", "dst": "E", "tz_database": "Europe/London", "type": "airport", "source": "OurAirports" }, "geometry": { "type": "Point", "coordinates": [ -4.047500133514404, 57.542499542236328 ] } },
{ "type": "Feature", "properties": { "airport_id": 534, "name": "Glasgow International Airport", "city": "Glasgow", "country": "United Kingdom", "iata": "GLA", "icao": "EGPF", "lat": 55.871898651099997, "long": -4.43306016922, "alt": 26, "tz": "0", "dst": "E", "tz_database": "Europe/London", "type": "airport", "source": "OurAirports" }, "geometry": { "type": "Point", "coordinates": [ -4.43306016922, 55.871898651099997 ] } },
{ "type": "Feature", "properties": { "airport_id": 535, "name": "Edinburgh Airport", "city": "Edinburgh", "country": "United Kingdom", "iata": "EDI", "icao": "EGPH", "lat": 55.950000762939453, "long": -3.372499942779541, "alt": 135, "tz": "0", "dst": "E", "tz_database": "Europe/London", "type": "airport", "source": "OurAirports" }, "geometry": { "type": "Point", "coordinates": [ -3.372499942779541, 55.950000762939453 ] } },
{ "type": "Feature", "properties": { "airport_id": 536, "name": "Islay Airport", "city": "Islay", "country": "United Kingdom", "iata": "ILY", "icao": "EGPI", "lat": 55.681900024414062, "long": -6.2566699981689453, "alt": 56, "tz": "0", "dst": "E", "tz_database": "Europe/London", "type": "airport", "source": "OurAirports" }, "geometry": { "type": "Point", "coordinates": [ -6.256669998168945, 55.681900024414062 ] } },
{ "type": "Feature", "properties": { "airport_id": 537, "name": "Glasgow Prestwick Airport", "city": "Prestwick", "country": "United Kingdom", "iata": "PIK", "icao": "EGPK", "lat": 55.5093994140625, "long": -4.586669921875, "alt": 65, "tz": "0", "dst": "E", "tz_database": "Europe/London", "type": "airport", "source": "OurAirports" }, "geometry": { "type": "Point", "coordinates": [ -4.586669921875, 55.5093994140625 ] } },
{ "type": "Feature", "properties": { "airport_id": 538, "name": "Benbecula Airport", "city": "Benbecula", "country": "United Kingdom", "iata": "BEB", "icao": "EGPL", "lat": 57.481098175048828, "long": -7.3627800941467285, "alt": 19, "tz": "0", "dst": "E", "tz_database": "Europe/London", "type": "airport", "source": "OurAirports" }, "geometry": { "type": "Point", "coordinates": [ -7.362780094146729, 57.481098175048828 ] } },
{ "type": "Feature", "properties": { "airport_id": 539, "name": "Scatsta Airport", "city": "Scatsta", "country": "United Kingdom", "iata": "SCS", "icao": "EGPM", "lat": 60.43280029296875, "long": -1.2961100339889526, "alt": 81, "tz": "0", "dst": "E", "tz_database": "Europe/London", "type": "airport", "source": "OurAirports" }, "geometry": { "type": "Point", "coordinates": [ -1.296110033988953, 60.43280029296875 ] } },
{ "type": "Feature", "properties": { "airport_id": 540, "name": "Dundee Airport", "city": "Dundee", "country": "United Kingdom", "iata": "DND", "icao": "EGPN", "lat": 56.452499389648438, "long": -3.0258300304412842, "alt": 17, "tz": "0", "dst": "E", "tz_database": "Europe/London", "type": "airport", "source": "OurAirports" }, "geometry": { "type": "Point", "coordinates": [ -3.025830030441284, 56.452499389648438 ] } },
{ "type": "Feature", "properties": { "airport_id": 541, "name": "Stornoway Airport", "city": "Stornoway", "country": "United Kingdom", "iata": "SYY", "icao": "EGPO", "lat": 58.215599060058594, "long": -6.3311100006103516, "alt": 26, "tz": "0", "dst": "E", "tz_database": "Europe/London", "type": "airport", "source": "OurAirports" }, "geometry": { "type": "Point", "coordinates": [ -6.331110000610352, 58.215599060058594 ] } },
{ "type": "Feature", "properties": { "airport_id": 542, "name": "Tiree Airport", "city": "Tiree", "country": "United Kingdom", "iata": "TRE", "icao": "EGPU", "lat": 56.499198913574219, "long": -6.8691701889038086, "alt": 38, "tz": "0", "dst": "E", "tz_database": "Europe/London", "type": "airport", "source": "OurAirports" }, "geometry": { "type": "Point", "coordinates": [ -6.869170188903809, 56.499198913574219 ] } },
{ "type": "Feature", "properties": { "airport_id": 543, "name": "RAF Leuchars", "city": "Leuchars", "country": "United Kingdom", "iata": "ADX", "icao": "EGQL", "lat": 56.372898101806641, "long": -2.8684399127960205, "alt": 38, "tz": "0", "dst": "E", "tz_database": "Europe/London", "type": "airport", "source": "OurAirports" }, "geometry": { "type": "Point", "coordinates": [ -2.868439912796021, 56.372898101806641 ] } },
{ "type": "Feature", "properties": { "airport_id": 544, "name": "RAF Lossiemouth", "city": "Lossiemouth", "country": "United Kingdom", "iata": "LMO", "icao": "EGQS", "lat": 57.7052001953125, "long": -3.339169979095459, "alt": 42, "tz": "0", "dst": "E", "tz_database": "Europe/London", "type": "airport", "source": "OurAirports" }, "geometry": { "type": "Point", "coordinates": [ -3.339169979095459, 57.7052001953125 ] } },
{ "type": "Feature", "properties": { "airport_id": 545, "name": "Cambridge Airport", "city": "Cambridge", "country": "United Kingdom", "iata": "CBG", "icao": "EGSC", "lat": 52.205002, "long": 0.175, "alt": 47, "tz": "0", "dst": "E", "tz_database": "Europe/London", "type": "airport", "source": "OurAirports" }, "geometry": { "type": "Point", "coordinates": [ 0.175, 52.205002 ] } },
{ "type": "Feature", "properties": { "airport_id": 546, "name": "Peterborough Business Airport", "city": "Peterborough", "country": "United Kingdom", "iata": "\\N", "icao": "EGSF", "lat": 52.468101501464844, "long": -0.25111100077629089, "alt": 26, "tz": "0", "dst": "E", "tz_database": "Europe/London", "type": "airport", "source": "OurAirports" }, "geometry": { "type": "Point", "coordinates": [ -0.251111000776291, 52.468101501464844 ] } },
{ "type": "Feature", "properties": { "airport_id": 547, "name": "Norwich International Airport", "city": "Norwich", "country": "United Kingdom", "iata": "NWI", "icao": "EGSH", "lat": 52.675800323499999, "long": 1.2827800512300001, "alt": 117, "tz": "0", "dst": "E", "tz_database": "Europe/London", "type": "airport", "source": "OurAirports" }, "geometry": { "type": "Point", "coordinates": [ 1.28278005123, 52.675800323499999 ] } },
{ "type": "Feature", "properties": { "airport_id": 548, "name": "London Stansted Airport", "city": "London", "country": "United Kingdom", "iata": "STN", "icao": "EGSS", "lat": 51.884998321499999, "long": 0.23499999940399999, "alt": 348, "tz": "0", "dst": "E", "tz_database": "Europe/London", "type": "airport", "source": "OurAirports" }, "geometry": { "type": "Point", "coordinates": [ 0.234999999404, 51.884998321499999 ] } },
{ "type": "Feature", "properties": { "airport_id": 549, "name": "North Weald Airport", "city": "North Weald", "country": "United Kingdom", "iata": "\\N", "icao": "EGSX", "lat": 51.721698761, "long": 0.15416699647900001, "alt": 321, "tz": "0", "dst": "E", "tz_database": "Europe/London", "type": "airport", "source": "OurAirports" }, "geometry": { "type": "Point", "coordinates": [ 0.154166996479, 51.721698761 ] } },
{ "type": "Feature", "properties": { "airport_id": 550, "name": "Sheffield City Heliport", "city": "Fowlmere", "country": "United Kingdom", "iata": "\\N", "icao": "EGSY", "lat": 53.394299, "long": -1.38849, "alt": 231, "tz": "0", "dst": "E", "tz_database": "Europe/London", "type": "airport", "source": "OurAirports" }, "geometry": { "type": "Point", "coordinates": [ -1.38849, 53.394299 ] } },
{ "type": "Feature", "properties": { "airport_id": 551, "name": "Cranfield Airport", "city": "Cranfield", "country": "United Kingdom", "iata": "\\N", "icao": "EGTC", "lat": 52.072200775100001, "long": -0.61666697263699999, "alt": 358, "tz": "0", "dst": "E", "tz_database": "Europe/London", "type": "airport", "source": "OurAirports" }, "geometry": { "type": "Point", "coordinates": [ -0.616666972637, 52.072200775100001 ] } },
{ "type": "Feature", "properties": { "airport_id": 552, "name": "Exeter International Airport", "city": "Exeter", "country": "United Kingdom", "iata": "EXT", "icao": "EGTE", "lat": 50.734401702880859, "long": -3.4138898849487305, "alt": 102, "tz": "0", "dst": "E", "tz_database": "Europe/London", "type": "airport", "source": "OurAirports" }, "geometry": { "type": "Point", "coordinates": [ -3.41388988494873, 50.734401702880859 ] } },
{ "type": "Feature", "properties": { "airport_id": 553, "name": "Bristol Filton Airport", "city": "Bristol", "country": "United Kingdom", "iata": "FZO", "icao": "EGTG", "lat": 51.519401550300003, "long": -2.5908300876600001, "alt": 226, "tz": "0", "dst": "E", "tz_database": "Europe/London", "type": "airport", "source": "OurAirports" }, "geometry": { "type": "Point", "coordinates": [ -2.59083008766, 51.519401550300003 ] } },
{ "type": "Feature", "properties": { "airport_id": 554, "name": "Oxford (Kidlington) Airport", "city": "Oxford", "country": "United Kingdom", "iata": "OXF", "icao": "EGTK", "lat": 51.836898803700002, "long": -1.32000005245, "alt": 270, "tz": "0", "dst": "E", "tz_database": "Europe/London", "type": "airport", "source": "OurAirports" }, "geometry": { "type": "Point", "coordinates": [ -1.32000005245, 51.836898803700002 ] } },
{ "type": "Feature", "properties": { "airport_id": 555, "name": "RAF Benson", "city": "Benson", "country": "United Kingdom", "iata": "BEX", "icao": "EGUB", "lat": 51.616401672399995, "long": -1.09582996368, "alt": 226, "tz": "0", "dst": "E", "tz_database": "Europe/London", "type": "airport", "source": "OurAirports" }, "geometry": { "type": "Point", "coordinates": [ -1.09582996368, 51.616401672399995 ] } },
{ "type": "Feature", "properties": { "airport_id": 556, "name": "RAF Lakenheath", "city": "Lakenheath", "country": "United Kingdom", "iata": "LKZ", "icao": "EGUL", "lat": 52.409301757799994, "long": 0.56099998950999996, "alt": 32, "tz": "0", "dst": "E", "tz_database": "Europe/London", "type": "airport", "source": "OurAirports" }, "geometry": { "type": "Point", "coordinates": [ 0.56099998951, 52.409301757799994 ] } },
{ "type": "Feature", "properties": { "airport_id": 557, "name": "RAF Mildenhall", "city": "Mildenhall", "country": "United Kingdom", "iata": "MHZ", "icao": "EGUN", "lat": 52.361900329589844, "long": 0.48640599846839905, "alt": 33, "tz": "0", "dst": "E", "tz_database": "Europe/London", "type": "airport", "source": "OurAirports" }, "geometry": { "type": "Point", "coordinates": [ 0.486405998468399, 52.361900329589844 ] } },
{ "type": "Feature", "properties": { "airport_id": 558, "name": "RAF Wattisham", "city": "Wattisham", "country": "United Kingdom", "iata": "\\N", "icao": "EGUW", "lat": 52.1273002625, "long": 0.95626401901199998, "alt": 284, "tz": "0", "dst": "E", "tz_database": "Europe/London", "type": "airport", "source": "OurAirports" }, "geometry": { "type": "Point", "coordinates": [ 0.956264019012, 52.1273002625 ] } },
{ "type": "Feature", "properties": { "airport_id": 559, "name": "RAF Wyton", "city": "Wyton", "country": "United Kingdom", "iata": "QUY", "icao": "EGUY", "lat": 52.357200622599997, "long": -0.107832998037, "alt": 135, "tz": "0", "dst": "E", "tz_database": "Europe/London", "type": "airport", "source": "OurAirports" }, "geometry": { "type": "Point", "coordinates": [ -0.107832998037, 52.357200622599997 ] } },
{ "type": "Feature", "properties": { "airport_id": 560, "name": "RAF Fairford", "city": "Fairford", "country": "United Kingdom", "iata": "FFD", "icao": "EGVA", "lat": 51.682201385500001, "long": -1.7900300025900002, "alt": 286, "tz": "0", "dst": "E", "tz_database": "Europe/London", "type": "airport", "source": "OurAirports" }, "geometry": { "type": "Point", "coordinates": [ -1.79003000259, 51.682201385500001 ] } },
{ "type": "Feature", "properties": { "airport_id": 561, "name": "RAF Brize Norton", "city": "Brize Norton", "country": "United Kingdom", "iata": "BZZ", "icao": "EGVN", "lat": 51.75, "long": -1.58362, "alt": 288, "tz": "0", "dst": "E", "tz_database": "Europe/London", "type": "airport", "source": "OurAirports" }, "geometry": { "type": "Point", "coordinates": [ -1.58362, 51.75 ] } },
{ "type": "Feature", "properties": { "airport_id": 562, "name": "RAF Odiham", "city": "Odiham", "country": "United Kingdom", "iata": "ODH", "icao": "EGVO", "lat": 51.234100341800001, "long": -0.94282501935999996, "alt": 405, "tz": "0", "dst": "E", "tz_database": "Europe/London", "type": "airport", "source": "OurAirports" }, "geometry": { "type": "Point", "coordinates": [ -0.94282501936, 51.234100341800001 ] } },
{ "type": "Feature", "properties": { "airport_id": 563, "name": "DCAE Cosford Air Base", "city": "Cosford", "country": "United Kingdom", "iata": "\\N", "icao": "EGWC", "lat": 52.639999, "long": -2.30558, "alt": 272, "tz": "0", "dst": "E", "tz_database": "Europe/London", "type": "airport", "source": "OurAirports" }, "geometry": { "type": "Point", "coordinates": [ -2.30558, 52.639999 ] } },
{ "type": "Feature", "properties": { "airport_id": 564, "name": "RAF Northolt", "city": "Northolt", "country": "United Kingdom", "iata": "NHT", "icao": "EGWU", "lat": 51.553001403799996, "long": -0.41816699504900001, "alt": 124, "tz": "0", "dst": "E", "tz_database": "Europe/London", "type": "airport", "source": "OurAirports" }, "geometry": { "type": "Point", "coordinates": [ -0.418166995049, 51.553001403799996 ] } },
{ "type": "Feature", "properties": { "airport_id": 565, "name": "RAF Coningsby", "city": "Coningsby", "country": "United Kingdom", "iata": "QCY", "icao": "EGXC", "lat": 53.092998504599997, "long": -0.16601400077299999, "alt": 25, "tz": "0", "dst": "E", "tz_database": "Europe/London", "type": "airport", "source": "OurAirports" }, "geometry": { "type": "Point", "coordinates": [ -0.166014000773, 53.092998504599997 ] } },
{ "type": "Feature", "properties": { "airport_id": 566, "name": "RAF Dishforth", "city": "Dishforth", "country": "United Kingdom", "iata": "\\N", "icao": "EGXD", "lat": 54.137199401899998, "long": -1.4202500581699999, "alt": 117, "tz": "0", "dst": "E", "tz_database": "Europe/London", "type": "airport", "source": "OurAirports" }, "geometry": { "type": "Point", "coordinates": [ -1.42025005817, 54.137199401899998 ] } },
{ "type": "Feature", "properties": { "airport_id": 567, "name": "Leeming Airport", "city": "Leeming", "country": "United Kingdom", "iata": "\\N", "icao": "EGXE", "lat": 54.2924, "long": -1.5354, "alt": 132, "tz": "0", "dst": "E", "tz_database": "Europe/London", "type": "airport", "source": "OurAirports" }, "geometry": { "type": "Point", "coordinates": [ -1.5354, 54.2924 ] } },
{ "type": "Feature", "properties": { "airport_id": 568, "name": "Leeds East Airport", "city": "Church Fenton", "country": "United Kingdom", "iata": "\\N", "icao": "EGXG", "lat": 53.834301, "long": -1.1955, "alt": 29, "tz": "0", "dst": "E", "tz_database": "Europe/London", "type": "airport", "source": "OurAirports" }, "geometry": { "type": "Point", "coordinates": [ -1.1955, 53.834301 ] } },
{ "type": "Feature", "properties": { "airport_id": 569, "name": "RAF Honington", "city": "Honington", "country": "United Kingdom", "iata": "BEQ", "icao": "EGXH", "lat": 52.342601776123047, "long": 0.77293902635574341, "alt": 174, "tz": "0", "dst": "E", "tz_database": "Europe/London", "type": "airport", "source": "OurAirports" }, "geometry": { "type": "Point", "coordinates": [ 0.772939026355743, 52.342601776123047 ] } },
{ "type": "Feature", "properties": { "airport_id": 570, "name": "RAF Cottesmore", "city": "Cottesmore", "country": "United Kingdom", "iata": "\\N", "icao": "EGXJ", "lat": 52.735699, "long": -0.648769, "alt": 461, "tz": "0", "dst": "E", "tz_database": "Europe/London", "type": "airport", "source": "OurAirports" }, "geometry": { "type": "Point", "coordinates": [ -0.648769, 52.735699 ] } },
{ "type": "Feature", "properties": { "airport_id": 571, "name": "RAF Scampton", "city": "Scampton", "country": "United Kingdom", "iata": "SQZ", "icao": "EGXP", "lat": 53.307800293, "long": -0.55083298683199999, "alt": 202, "tz": "0", "dst": "E", "tz_database": "Europe/London", "type": "airport", "source": "OurAirports" }, "geometry": { "type": "Point", "coordinates": [ -0.550832986832, 53.307800293 ] } },
{ "type": "Feature", "properties": { "airport_id": 572, "name": "RAF Wittering", "city": "Wittering", "country": "United Kingdom", "iata": "\\N", "icao": "EGXT", "lat": 52.612598, "long": -0.476453, "alt": 273, "tz": "0", "dst": "E", "tz_database": "Europe/London", "type": "airport", "source": "OurAirports" }, "geometry": { "type": "Point", "coordinates": [ -0.476453, 52.612598 ] } },
{ "type": "Feature", "properties": { "airport_id": 573, "name": "RAF Linton-On-Ouse", "city": "Linton-on-ouse", "country": "United Kingdom", "iata": "HRT", "icao": "EGXU", "lat": 54.0489006042, "long": -1.2527500391, "alt": 53, "tz": "0", "dst": "E", "tz_database": "Europe/London", "type": "airport", "source": "OurAirports" }, "geometry": { "type": "Point", "coordinates": [ -1.2527500391, 54.0489006042 ] } },
{ "type": "Feature", "properties": { "airport_id": 574, "name": "RAF Waddington", "city": "Waddington", "country": "United Kingdom", "iata": "WTN", "icao": "EGXW", "lat": 53.1661987305, "long": -0.52381098270399995, "alt": 231, "tz": "0", "dst": "E", "tz_database": "Europe/London", "type": "airport", "source": "OurAirports" }, "geometry": { "type": "Point", "coordinates": [ -0.523810982704, 53.1661987305 ] } },
{ "type": "Feature", "properties": { "airport_id": 575, "name": "RAF Topcliffe", "city": "Topcliffe", "country": "United Kingdom", "iata": "\\N", "icao": "EGXZ", "lat": 54.205501556399994, "long": -1.3820899725, "alt": 92, "tz": "0", "dst": "E", "tz_database": "Europe/London", "type": "airport", "source": "OurAirports" }, "geometry": { "type": "Point", "coordinates": [ -1.3820899725, 54.205501556399994 ] } },
{ "type": "Feature", "properties": { "airport_id": 576, "name": "RAF Cranwell", "city": "Cranwell", "country": "United Kingdom", "iata": "\\N", "icao": "EGYD", "lat": 53.030300140400001, "long": -0.48324200510999998, "alt": 218, "tz": "0", "dst": "E", "tz_database": "Europe/London", "type": "airport", "source": "OurAirports" }, "geometry": { "type": "Point", "coordinates": [ -0.48324200511, 53.030300140400001 ] } },
{ "type": "Feature", "properties": { "airport_id": 577, "name": "RAF Barkston Heath", "city": "Barkston Heath", "country": "United Kingdom", "iata": "\\N", "icao": "EGYE", "lat": 52.962200164799995, "long": -0.56162500381500002, "alt": 367, "tz": "0", "dst": "E", "tz_database": "Europe/London", "type": "airport", "source": "OurAirports" }, "geometry": { "type": "Point", "coordinates": [ -0.561625003815, 52.962200164799995 ] } },
{ "type": "Feature", "properties": { "airport_id": 578, "name": "RAF Marham", "city": "Marham", "country": "United Kingdom", "iata": "KNF", "icao": "EGYM", "lat": 52.648395, "long": 0.550692, "alt": 75, "tz": "0", "dst": "E", "tz_database": "Europe/London", "type": "airport", "source": "OurAirports" }, "geometry": { "type": "Point", "coordinates": [ 0.550692, 52.648395 ] } },
{ "type": "Feature", "properties": { "airport_id": 4347, "name": "St. Mary's Airport", "city": "ST MARY\\'S", "country": "United Kingdom", "iata": "ISC", "icao": "EGHE", "lat": 49.913299560546875, "long": -6.2916698455810547, "alt": 116, "tz": "0", "dst": "E", "tz_database": "Europe/London", "type": "airport", "source": "OurAirports" }, "geometry": { "type": "Point", "coordinates": [ -6.291669845581055, 49.913299560546875 ] } },
{ "type": "Feature", "properties": { "airport_id": 5561, "name": "Nottingham Airport", "city": "Nottingham", "country": "United Kingdom", "iata": "NQT", "icao": "EGBN", "lat": 52.919998168945312, "long": -1.0791699886322021, "alt": 138, "tz": "0", "dst": "E", "tz_database": "Europe/London", "type": "airport", "source": "OurAirports" }, "geometry": { "type": "Point", "coordinates": [ -1.079169988632202, 52.919998168945312 ] } },
{ "type": "Feature", "properties": { "airport_id": 5562, "name": "Robin Hood Doncaster Sheffield Airport", "city": "Doncaster, Sheffield", "country": "United Kingdom", "iata": "DSA", "icao": "EGCN", "lat": 53.480537810500003, "long": -1.01065635681, "alt": 55, "tz": "0", "dst": "E", "tz_database": "Europe/London", "type": "airport", "source": "OurAirports" }, "geometry": { "type": "Point", "coordinates": [ -1.01065635681, 53.480537810500003 ] } },
{ "type": "Feature", "properties": { "airport_id": 5563, "name": "Campbeltown Airport", "city": "Campbeltown", "country": "United Kingdom", "iata": "CAL", "icao": "EGEC", "lat": 55.437198638916016, "long": -5.6863899230957031, "alt": 42, "tz": "0", "dst": "E", "tz_database": "Europe/London", "type": "airport", "source": "OurAirports" }, "geometry": { "type": "Point", "coordinates": [ -5.686389923095703, 55.437198638916016 ] } },
{ "type": "Feature", "properties": { "airport_id": 5564, "name": "Eday Airport", "city": "Eday", "country": "United Kingdom", "iata": "EOI", "icao": "EGED", "lat": 59.190601348876953, "long": -2.7722198963165283, "alt": 10, "tz": "0", "dst": "E", "tz_database": "Europe/London", "type": "airport", "source": "OurAirports" }, "geometry": { "type": "Point", "coordinates": [ -2.772219896316528, 59.190601348876953 ] } },
{ "type": "Feature", "properties": { "airport_id": 5565, "name": "Fair Isle Airport", "city": "Fair Isle", "country": "United Kingdom", "iata": "FIE", "icao": "EGEF", "lat": 59.535800933837891, "long": -1.628059983253479, "alt": 223, "tz": "0", "dst": "E", "tz_database": "Europe/London", "type": "airport", "source": "OurAirports" }, "geometry": { "type": "Point", "coordinates": [ -1.628059983253479, 59.535800933837891 ] } },
{ "type": "Feature", "properties": { "airport_id": 5566, "name": "North Ronaldsay Airport", "city": "North Ronaldsay", "country": "United Kingdom", "iata": "NRL", "icao": "EGEN", "lat": 59.367500305199997, "long": -2.4344398975399999, "alt": 40, "tz": "0", "dst": "E", "tz_database": "Europe/London", "type": "airport", "source": "OurAirports" }, "geometry": { "type": "Point", "coordinates": [ -2.43443989754, 59.367500305199997 ] } },
{ "type": "Feature", "properties": { "airport_id": 5567, "name": "Papa Westray Airport", "city": "Papa Westray", "country": "United Kingdom", "iata": "PPW", "icao": "EGEP", "lat": 59.351699829100006, "long": -2.9002799987800003, "alt": 91, "tz": "0", "dst": "E", "tz_database": "Europe/London", "type": "airport", "source": "OurAirports" }, "geometry": { "type": "Point", "coordinates": [ -2.90027999878, 59.351699829100006 ] } },
{ "type": "Feature", "properties": { "airport_id": 5568, "name": "Stronsay Airport", "city": "Stronsay", "country": "United Kingdom", "iata": "SOY", "icao": "EGER", "lat": 59.155300140400001, "long": -2.6413900852199999, "alt": 39, "tz": "0", "dst": "E", "tz_database": "Europe/London", "type": "airport", "source": "OurAirports" }, "geometry": { "type": "Point", "coordinates": [ -2.64139008522, 59.155300140400001 ] } },
{ "type": "Feature", "properties": { "airport_id": 5569, "name": "Sanday Airport", "city": "Sanday", "country": "United Kingdom", "iata": "NDY", "icao": "EGES", "lat": 59.250301361083984, "long": -2.5766699314117432, "alt": 68, "tz": "0", "dst": "E", "tz_database": "Europe/London", "type": "airport", "source": "OurAirports" }, "geometry": { "type": "Point", "coordinates": [ -2.576669931411743, 59.250301361083984 ] } },
{ "type": "Feature", "properties": { "airport_id": 5570, "name": "Lerwick / Tingwall Airport", "city": "Lerwick", "country": "United Kingdom", "iata": "LWK", "icao": "EGET", "lat": 60.192199707, "long": -1.2436100244499999, "alt": 43, "tz": "0", "dst": "E", "tz_database": "Europe/London", "type": "airport", "source": "OurAirports" }, "geometry": { "type": "Point", "coordinates": [ -1.24361002445, 60.192199707 ] } },
{ "type": "Feature", "properties": { "airport_id": 5571, "name": "Westray Airport", "city": "Westray", "country": "United Kingdom", "iata": "WRY", "icao": "EGEW", "lat": 59.350299835199998, "long": -2.9500000476800001, "alt": 29, "tz": "0", "dst": "E", "tz_database": "Europe/London", "type": "airport", "source": "OurAirports" }, "geometry": { "type": "Point", "coordinates": [ -2.95000004768, 59.350299835199998 ] } },
{ "type": "Feature", "properties": { "airport_id": 5572, "name": "Land's End Airport", "city": "Land's End", "country": "United Kingdom", "iata": "LEQ", "icao": "EGHC", "lat": 50.102798, "long": -5.67056, "alt": 398, "tz": "0", "dst": "E", "tz_database": "Europe/London", "type": "airport", "source": "OurAirports" }, "geometry": { "type": "Point", "coordinates": [ -5.67056, 50.102798 ] } },
{ "type": "Feature", "properties": { "airport_id": 5573, "name": "Penzance Heliport", "city": "Penzance", "country": "United Kingdom", "iata": "PZE", "icao": "EGHK", "lat": 50.128101, "long": -5.51845, "alt": 14, "tz": "0", "dst": "E", "tz_database": "Europe/London", "type": "airport", "source": "OurAirports" }, "geometry": { "type": "Point", "coordinates": [ -5.51845, 50.128101 ] } },
{ "type": "Feature", "properties": { "airport_id": 5574, "name": "Anglesey Airport", "city": "Angelsey", "country": "United Kingdom", "iata": "VLY", "icao": "EGOV", "lat": 53.248100280800003, "long": -4.53533983231, "alt": 37, "tz": "0", "dst": "E", "tz_database": "Europe/London", "type": "airport", "source": "OurAirports" }, "geometry": { "type": "Point", "coordinates": [ -4.53533983231, 53.248100280800003 ] } },
{ "type": "Feature", "properties": { "airport_id": 5575, "name": "Barra Airport", "city": "Barra", "country": "United Kingdom", "iata": "BRR", "icao": "EGPR", "lat": 57.0228, "long": -7.44306, "alt": 5, "tz": "0", "dst": "E", "tz_database": "Europe/London", "type": "airport", "source": "OurAirports" }, "geometry": { "type": "Point", "coordinates": [ -7.44306, 57.0228 ] } },
{ "type": "Feature", "properties": { "airport_id": 5656, "name": "Foula Airport", "city": "Foula", "country": "United Kingdom", "iata": "FOA", "icao": "\\N", "lat": 60.121, "long": -2.052, "alt": 0, "tz": "0", "dst": "E", "tz_database": "Europe/London", "type": "airport", "source": "User" }, "geometry": { "type": "Point", "coordinates": [ -2.052, 60.121 ] } },
{ "type": "Feature", "properties": { "airport_id": 5657, "name": "Outer Skerries Airport", "city": "Outer Skerries", "country": "United Kingdom", "iata": "OUK", "icao": "EGOU", "lat": 60.4252, "long": -0.75, "alt": 76, "tz": "0", "dst": "E", "tz_database": "Europe/London", "type": "airport", "source": "OurAirports" }, "geometry": { "type": "Point", "coordinates": [ -0.75, 60.4252 ] } },
{ "type": "Feature", "properties": { "airport_id": 5658, "name": "Papa Stour Airport", "city": "Papa Stour", "country": "United Kingdom", "iata": "PSV", "icao": "\\N", "lat": 60.3217, "long": -1.69306, "alt": 0, "tz": "0", "dst": "E", "tz_database": "Europe/London", "type": "airport", "source": "User" }, "geometry": { "type": "Point", "coordinates": [ -1.69306, 60.3217 ] } },
{ "type": "Feature", "properties": { "airport_id": 6454, "name": "Unst Airport", "city": "Unst", "country": "United Kingdom", "iata": "UNT", "icao": "EGPW", "lat": 60.747200012207031, "long": -0.85385000705718994, "alt": 0, "tz": "0", "dst": "E", "tz_database": "Europe/London", "type": "airport", "source": "OurAirports" }, "geometry": { "type": "Point", "coordinates": [ -0.85385000705719, 60.747200012207031 ] } },
{ "type": "Feature", "properties": { "airport_id": 6467, "name": "Oban Airport", "city": "North Connel", "country": "United Kingdom", "iata": "OBN", "icao": "EGEO", "lat": 56.4635009765625, "long": -5.3996701240539551, "alt": 20, "tz": "0", "dst": "E", "tz_database": "Europe/London", "type": "airport", "source": "OurAirports" }, "geometry": { "type": "Point", "coordinates": [ -5.399670124053955, 56.4635009765625 ] } },
{ "type": "Feature", "properties": { "airport_id": 6483, "name": "Isle of Wight / Sandown Airport", "city": "Isle Of Wight", "country": "United Kingdom", "iata": "\\N", "icao": "EGHN", "lat": 50.653099, "long": -1.18221998, "alt": 55, "tz": "0", "dst": "E", "tz_database": "Europe/London", "type": "airport", "source": "OurAirports" }, "geometry": { "type": "Point", "coordinates": [ -1.18221998, 50.653099 ] } },
{ "type": "Feature", "properties": { "airport_id": 6484, "name": "Fort William Heliport", "city": "Fort William", "country": "United Kingdom", "iata": "FWM", "icao": "\\N", "lat": 56.816666, "long": -5.116667, "alt": 0, "tz": "0", "dst": "E", "tz_database": "Europe/London", "type": "airport", "source": "User" }, "geometry": { "type": "Point", "coordinates": [ -5.116667, 56.816666 ] } },
{ "type": "Feature", "properties": { "airport_id": 6498, "name": "Portsmouth Airport", "city": "Portsmouth", "country": "United Kingdom", "iata": "PME", "icao": "\\N", "lat": 50.8, "long": -1.083333, "alt": 0, "tz": "0", "dst": "E", "tz_database": "Europe/London", "type": "airport", "source": "User" }, "geometry": { "type": "Point", "coordinates": [ -1.083333, 50.8 ] } },
{ "type": "Feature", "properties": { "airport_id": 6886, "name": "Lympne Airport", "city": "Lympne", "country": "United Kingdom", "iata": "LYM", "icao": "EGMK", "lat": 51.08, "long": 1.013, "alt": 351, "tz": "0", "dst": "E", "tz_database": "Europe/London", "type": "airport", "source": "OurAirports" }, "geometry": { "type": "Point", "coordinates": [ 1.013, 51.08 ] } },
{ "type": "Feature", "properties": { "airport_id": 7386, "name": "Aberdeen Railway Station", "city": "Aberdeen", "country": "United Kingdom", "iata": "\\N", "icao": "\\N", "lat": 57.1436, "long": -2.0985, "alt": 1, "tz": "0", "dst": "U", "tz_database": "Europe/London", "type": "station", "source": "User" }, "geometry": { "type": "Point", "coordinates": [ -2.0985, 57.1436 ] } },
{ "type": "Feature", "properties": { "airport_id": 7387, "name": "Glasgow Railway Station", "city": "Glasgow", "country": "United Kingdom", "iata": "\\N", "icao": "\\N", "lat": 55.8622, "long": -4.2512, "alt": 0, "tz": "0", "dst": "U", "tz_database": "Europe/London", "type": "station", "source": "User" }, "geometry": { "type": "Point", "coordinates": [ -4.2512, 55.8622 ] } },
{ "type": "Feature", "properties": { "airport_id": 7388, "name": "Edinburgh Waverly Station", "city": "Edinburgh", "country": "United Kingdom", "iata": "ZXE", "icao": "\\N", "lat": 55.952, "long": -3.189, "alt": 0, "tz": "0", "dst": "U", "tz_database": "Europe/London", "type": "station", "source": "User" }, "geometry": { "type": "Point", "coordinates": [ -3.189, 55.952 ] } },
{ "type": "Feature", "properties": { "airport_id": 7389, "name": "Newcastle Railway Station", "city": "Newcastle Upon Tyne", "country": "United Kingdom", "iata": "\\N", "icao": "\\N", "lat": 54.9686, "long": -1.6171, "alt": 0, "tz": "0", "dst": "U", "tz_database": "Europe/London", "type": "station", "source": "User" }, "geometry": { "type": "Point", "coordinates": [ -1.6171, 54.9686 ] } },
{ "type": "Feature", "properties": { "airport_id": 7390, "name": "Leeds Railway Station", "city": "Leeds", "country": "United Kingdom", "iata": "\\N", "icao": "\\N", "lat": 53.794, "long": -1.547, "alt": 0, "tz": "0", "dst": "U", "tz_database": "Europe/London", "type": "station", "source": "User" }, "geometry": { "type": "Point", "coordinates": [ -1.547, 53.794 ] } },
{ "type": "Feature", "properties": { "airport_id": 7391, "name": "Manchester Picadilly Station", "city": "Manchester", "country": "United Kingdom", "iata": "\\N", "icao": "\\N", "lat": 53.477, "long": -2.23, "alt": 0, "tz": "0", "dst": "U", "tz_database": "Europe/London", "type": "station", "source": "User" }, "geometry": { "type": "Point", "coordinates": [ -2.23, 53.477 ] } },
{ "type": "Feature", "properties": { "airport_id": 7392, "name": "Liverpool Railway Station", "city": "Liverpool", "country": "United Kingdom", "iata": "\\N", "icao": "\\N", "lat": 53.405, "long": -2.979, "alt": 0, "tz": "0", "dst": "U", "tz_database": "Europe/London", "type": "station", "source": "User" }, "geometry": { "type": "Point", "coordinates": [ -2.979, 53.405 ] } },
{ "type": "Feature", "properties": { "airport_id": 7393, "name": "London Euston Railway Station", "city": "London", "country": "United Kingdom", "iata": "\\N", "icao": "\\N", "lat": 51.5284, "long": -0.1331, "alt": 0, "tz": "0", "dst": "U", "tz_database": "Europe/London", "type": "station", "source": "User" }, "geometry": { "type": "Point", "coordinates": [ -0.1331, 51.5284 ] } },
{ "type": "Feature", "properties": { "airport_id": 7492, "name": "Colonsay Airstrip", "city": "Colonsay", "country": "United Kingdom", "iata": "CSA", "icao": "EGEY", "lat": 56.0574989319, "long": -6.243060112, "alt": 44, "tz": "0", "dst": "U", "tz_database": "Europe/London", "type": "airport", "source": "OurAirports" }, "geometry": { "type": "Point", "coordinates": [ -6.243060112, 56.0574989319 ] } },
{ "type": "Feature", "properties": { "airport_id": 7493, "name": "Coll Airport", "city": "Coll", "country": "United Kingdom", "iata": "COL", "icao": "\\N", "lat": 56.633333, "long": -6.557222, "alt": 50, "tz": "0", "dst": "U", "tz_database": "Europe/London", "type": "airport", "source": "User" }, "geometry": { "type": "Point", "coordinates": [ -6.557222, 56.633333 ] } },
{ "type": "Feature", "properties": { "airport_id": 7498, "name": "Tresco Heliport", "city": "Tresco", "country": "United Kingdom", "iata": "\\N", "icao": "EGHT", "lat": 49.945598602294922, "long": -6.3313899040222168, "alt": 20, "tz": "0", "dst": "U", "tz_database": "Europe/London", "type": "airport", "source": "OurAirports" }, "geometry": { "type": "Point", "coordinates": [ -6.331389904022217, 49.945598602294922 ] } },
{ "type": "Feature", "properties": { "airport_id": 7639, "name": "Paddington Station", "city": "London", "country": "United Kingdom", "iata": "QQP", "icao": "\\N", "lat": 51.515833, "long": -0.176111, "alt": 0, "tz": "0", "dst": "E", "tz_database": "Europe/London", "type": "station", "source": "User" }, "geometry": { "type": "Point", "coordinates": [ -0.176111, 51.515833 ] } },
{ "type": "Feature", "properties": { "airport_id": 7666, "name": "Glasgow Buchanan Bus Station", "city": "Glasgow", "country": "United Kingdom", "iata": "\\N", "icao": "\\N", "lat": 55.8652, "long": -4.25033, "alt": 0, "tz": "0", "dst": "E", "tz_database": "Europe/London", "type": "station", "source": "User" }, "geometry": { "type": "Point", "coordinates": [ -4.25033, 55.8652 ] } },
{ "type": "Feature", "properties": { "airport_id": 7667, "name": "London Victoria Bus Station", "city": "London", "country": "United Kingdom", "iata": "\\N", "icao": "\\N", "lat": 51.494999, "long": -0.144643, "alt": 0, "tz": "0", "dst": "E", "tz_database": "Europe/London", "type": "station", "source": "User" }, "geometry": { "type": "Point", "coordinates": [ -0.144643, 51.494999 ] } },
{ "type": "Feature", "properties": { "airport_id": 7722, "name": "London Heliport", "city": "London", "country": "United Kingdom", "iata": "\\N", "icao": "EGLW", "lat": 51.469722747799992, "long": -0.179444000125, "alt": 18, "tz": "0", "dst": "E", "tz_database": "Europe/London", "type": "airport", "source": "OurAirports" }, "geometry": { "type": "Point", "coordinates": [ -0.179444000125, 51.469722747799992 ] } },
{ "type": "Feature", "properties": { "airport_id": 7773, "name": "White Waltham Airfield", "city": "Maidenhead", "country": "United Kingdom", "iata": "\\N", "icao": "EGLM", "lat": 51.500801086399996, "long": -0.77444398403199999, "alt": 131, "tz": "0", "dst": "E", "tz_database": "Europe/London", "type": "airport", "source": "OurAirports" }, "geometry": { "type": "Point", "coordinates": [ -0.774443984032, 51.500801086399996 ] } },
{ "type": "Feature", "properties": { "airport_id": 7804, "name": "Wycombe Air Park", "city": "Wycombe", "country": "United Kingdom", "iata": "HYC", "icao": "EGTB", "lat": 51.611698150599999, "long": -0.80833297967900009, "alt": 515, "tz": "0", "dst": "E", "tz_database": "Europe/London", "type": "airport", "source": "OurAirports" }, "geometry": { "type": "Point", "coordinates": [ -0.808332979679, 51.611698150599999 ] } },
{ "type": "Feature", "properties": { "airport_id": 7805, "name": "Bembridge Airport", "city": "Bembridge", "country": "United Kingdom", "iata": "BBP", "icao": "EGHJ", "lat": 50.678100585899998, "long": -1.1094399690600001, "alt": 53, "tz": "0", "dst": "E", "tz_database": "Europe/London", "type": "airport", "source": "OurAirports" }, "geometry": { "type": "Point", "coordinates": [ -1.10943996906, 50.678100585899998 ] } },
{ "type": "Feature", "properties": { "airport_id": 8024, "name": "St Pancras Railway Station", "city": "London", "country": "United Kingdom", "iata": "QQS", "icao": "\\N", "lat": 51.532519492138, "long": -0.12630037301642, "alt": 80, "tz": "0", "dst": "E", "tz_database": "Europe/London", "type": "station", "source": "User" }, "geometry": { "type": "Point", "coordinates": [ -0.12630037301642, 51.532519492138 ] } },
{ "type": "Feature", "properties": { "airport_id": 8323, "name": "Compton Abbas Aerodrome", "city": "Shaftesbury", "country": "United Kingdom", "iata": "\\N", "icao": "EGHA", "lat": 50.967201232910156, "long": -2.1536099910736084, "alt": 811, "tz": "0", "dst": "U", "tz_database": "Europe/London", "type": "airport", "source": "OurAirports" }, "geometry": { "type": "Point", "coordinates": [ -2.153609991073608, 50.967201232910156 ] } },
{ "type": "Feature", "properties": { "airport_id": 8330, "name": "Ferry Port", "city": "Dover", "country": "United Kingdom", "iata": "\\N", "icao": "\\N", "lat": 51.126876, "long": 1.339747, "alt": 6, "tz": "0", "dst": "E", "tz_database": "Europe/London", "type": "port", "source": "User" }, "geometry": { "type": "Point", "coordinates": [ 1.339747, 51.126876 ] } },
{ "type": "Feature", "properties": { "airport_id": 8405, "name": "Glasgow City Heliport", "city": "Glasgow", "country": "United Kingdom", "iata": "\\N", "icao": "EGEG", "lat": 55.86138916015625, "long": -4.2969441413879395, "alt": 0, "tz": "0", "dst": "E", "tz_database": "Europe/London", "type": "airport", "source": "OurAirports" }, "geometry": { "type": "Point", "coordinates": [ -4.296944141387939, 55.86138916015625 ] } },
{ "type": "Feature", "properties": { "airport_id": 8567, "name": "Scatsta Airport", "city": "Scatsta", "country": "United Kingdom", "iata": "\\N", "icao": "\\N", "lat": 60.433, "long": -1.3, "alt": 0, "tz": "0", "dst": "U", "tz_database": "Europe/London", "type": "airport", "source": "User" }, "geometry": { "type": "Point", "coordinates": [ -1.3, 60.433 ] } },
{ "type": "Feature", "properties": { "airport_id": 8577, "name": "Orlampa Inc Airport", "city": "Forties Alpha", "country": "United Kingdom", "iata": "\\N", "icao": "FA08", "lat": 28.166999816900002, "long": -81.808097839399991, "alt": 139, "tz": "0", "dst": "U", "tz_database": "America/New_York", "type": "airport", "source": "OurAirports" }, "geometry": { "type": "Point", "coordinates": [ -81.808097839399991, 28.166999816900002 ] } },
{ "type": "Feature", "properties": { "airport_id": 8590, "name": "All Airports", "city": "London", "country": "United Kingdom", "iata": "LON", "icao": "\\N", "lat": 51.508056, "long": -0.127778, "alt": 66, "tz": "0", "dst": "E", "tz_database": "Europe/London", "type": "airport", "source": "User" }, "geometry": { "type": "Point", "coordinates": [ -0.127778, 51.508056 ] } },
{ "type": "Feature", "properties": { "airport_id": 8669, "name": "Perth/Scone Airport", "city": "Perth", "country": "United Kingdom", "iata": "PSL", "icao": "EGPT", "lat": 56.439201354980469, "long": -3.3722200393676758, "alt": 397, "tz": "0", "dst": "E", "tz_database": "Europe/London", "type": "airport", "source": "OurAirports" }, "geometry": { "type": "Point", "coordinates": [ -3.372220039367676, 56.439201354980469 ] } },
{ "type": "Feature", "properties": { "airport_id": 8670, "name": "Caernarfon Airport", "city": "Caernarfon", "country": "United Kingdom", "iata": "\\N", "icao": "EGCK", "lat": 53.101819, "long": -4.337614, "alt": 1, "tz": "0", "dst": "E", "tz_database": "Europe/London", "type": "airport", "source": "OurAirports" }, "geometry": { "type": "Point", "coordinates": [ -4.337614, 53.101819 ] } },
{ "type": "Feature", "properties": { "airport_id": 8733, "name": "Stevenage Railway Station", "city": "Stevenage", "country": "United Kingdom", "iata": "XVJ", "icao": "\\N", "lat": 51.902, "long": -0.207, "alt": 314, "tz": "0", "dst": "E", "tz_database": "Europe/London", "type": "station", "source": "User" }, "geometry": { "type": "Point", "coordinates": [ -0.207, 51.902 ] } },
{ "type": "Feature", "properties": { "airport_id": 8734, "name": "Peterborough Railway Station", "city": "Peterborough", "country": "United Kingdom", "iata": "XVH", "icao": "\\N", "lat": 52.5748, "long": -0.2502, "alt": 91, "tz": "0", "dst": "E", "tz_database": "Europe/London", "type": "station", "source": "User" }, "geometry": { "type": "Point", "coordinates": [ -0.2502, 52.5748 ] } },
{ "type": "Feature", "properties": { "airport_id": 8739, "name": "Whittlesford Parkway Rail Station", "city": "Whittlesford", "country": "United Kingdom", "iata": "WLF", "icao": "\\N", "lat": 52.104, "long": 0.166, "alt": 95, "tz": "0", "dst": "E", "tz_database": "Europe/London", "type": "station", "source": "User" }, "geometry": { "type": "Point", "coordinates": [ 0.166, 52.104 ] } },
{ "type": "Feature", "properties": { "airport_id": 8764, "name": "Oban Rail Station", "city": "Oban", "country": "United Kingdom", "iata": "\\N", "icao": "\\N", "lat": 56.4124, "long": -5.4702, "alt": 0, "tz": "0", "dst": "E", "tz_database": "Europe/London", "type": "station", "source": "User" }, "geometry": { "type": "Point", "coordinates": [ -5.4702, 56.4124 ] } },
{ "type": "Feature", "properties": { "airport_id": 8813, "name": "Duxford Aerodrome", "city": "Duxford", "country": "United Kingdom", "iata": "QFO", "icao": "EGSU", "lat": 52.090801, "long": 0.131944, "alt": 125, "tz": "0", "dst": "E", "tz_database": "Europe/London", "type": "airport", "source": "OurAirports" }, "geometry": { "type": "Point", "coordinates": [ 0.131944, 52.090801 ] } },
{ "type": "Feature", "properties": { "airport_id": 8853, "name": "Fairoaks Airport", "city": "Fairoaks", "country": "United Kingdom", "iata": "\\N", "icao": "EGTF", "lat": 51.348098754900001, "long": -0.55888897180599995, "alt": 80, "tz": "0", "dst": "U", "tz_database": "Europe/London", "type": "airport", "source": "OurAirports" }, "geometry": { "type": "Point", "coordinates": [ -0.558888971806, 51.348098754900001 ] } },
{ "type": "Feature", "properties": { "airport_id": 8894, "name": "Rochester Airport", "city": "Rochester", "country": "United Kingdom", "iata": "RCS", "icao": "EGTO", "lat": 51.351898193359375, "long": 0.50333297252655029, "alt": 436, "tz": "0", "dst": "E", "tz_database": "Europe/London", "type": "airport", "source": "OurAirports" }, "geometry": { "type": "Point", "coordinates": [ 0.50333297252655, 51.351898193359375 ] } },
{ "type": "Feature", "properties": { "airport_id": 8912, "name": "Euston Station", "city": "London", "country": "United Kingdom", "iata": "\\N", "icao": "\\N", "lat": 51.5284, "long": -0.1331, "alt": 89, "tz": "0", "dst": "E", "tz_database": "Europe/London", "type": "station", "source": "User" }, "geometry": { "type": "Point", "coordinates": [ -0.1331, 51.5284 ] } },
{ "type": "Feature", "properties": { "airport_id": 8932, "name": "Rothera Research Station", "city": "Rothera Research Station", "country": "United Kingdom", "iata": "\\N", "icao": "EGAR", "lat": -67.5675, "long": -68.1274027778, "alt": 9, "tz": "12", "dst": "U", "tz_database": "Antarctica/South_Pole", "type": "airport", "source": "OurAirports" }, "geometry": { "type": "Point", "coordinates": [ -68.1274027778, -67.5675 ] } },
{ "type": "Feature", "properties": { "airport_id": 8965, "name": "Beccles Airport", "city": "Beccles", "country": "United Kingdom", "iata": "\\N", "icao": "EGSM", "lat": 52.435298919699996, "long": 1.6183300018300002, "alt": 80, "tz": "0", "dst": "E", "tz_database": "Europe/London", "type": "airport", "source": "OurAirports" }, "geometry": { "type": "Point", "coordinates": [ 1.61833000183, 52.435298919699996 ] } },
{ "type": "Feature", "properties": { "airport_id": 8972, "name": "RAF Brawdy", "city": "Brawdy", "country": "United Kingdom", "iata": "\\N", "icao": "EGDA", "lat": 51.88375, "long": -5.119972, "alt": 0, "tz": "0", "dst": "E", "tz_database": "Europe/London", "type": "airport", "source": "OurAirports" }, "geometry": { "type": "Point", "coordinates": [ -5.119972, 51.88375 ] } },
{ "type": "Feature", "properties": { "airport_id": 8975, "name": "Redhill Aerodrome", "city": "Redhill", "country": "United Kingdom", "iata": "KRH", "icao": "EGKR", "lat": 51.213600158699997, "long": -0.138611003757, "alt": 222, "tz": "0", "dst": "E", "tz_database": "Europe/London", "type": "airport", "source": "OurAirports" }, "geometry": { "type": "Point", "coordinates": [ -0.138611003757, 51.213600158699997 ] } },
{ "type": "Feature", "properties": { "airport_id": 8978, "name": "Victoria Station", "city": "London", "country": "United Kingdom", "iata": "\\N", "icao": "\\N", "lat": 51.4964, "long": -0.14391, "alt": 48, "tz": "0", "dst": "E", "tz_database": "Europe/London", "type": "station", "source": "User" }, "geometry": { "type": "Point", "coordinates": [ -0.14391, 51.4964 ] } },
{ "type": "Feature", "properties": { "airport_id": 8985, "name": "Enstone Aerodrome", "city": "Enstone", "country": "United Kingdom", "iata": "\\N", "icao": "EGTN", "lat": 51.928166666699994, "long": -1.4285, "alt": 550, "tz": "0", "dst": "U", "tz_database": "Europe/London", "type": "airport", "source": "OurAirports" }, "geometry": { "type": "Point", "coordinates": [ -1.4285, 51.928166666699994 ] } },
{ "type": "Feature", "properties": { "airport_id": 9172, "name": "Stranraer Ferry Port", "city": "Stranraer", "country": "United Kingdom", "iata": "SR2", "icao": "\\N", "lat": 54.902, "long": -5.027, "alt": 0, "tz": "0", "dst": "E", "tz_database": "Europe/London", "type": "port", "source": "User" }, "geometry": { "type": "Point", "coordinates": [ -5.027, 54.902 ] } },
{ "type": "Feature", "properties": { "airport_id": 9276, "name": "Elstree Airfield", "city": "Elstree", "country": "United Kingdom", "iata": "\\N", "icao": "EGTR", "lat": 51.655799865699997, "long": -0.32583299279200001, "alt": 332, "tz": "0", "dst": "E", "tz_database": "Europe/London", "type": "airport", "source": "OurAirports" }, "geometry": { "type": "Point", "coordinates": [ -0.325832992792, 51.655799865699997 ] } },
{ "type": "Feature", "properties": { "airport_id": 9277, "name": "Sandtoft Airfield", "city": "Sandtoft", "country": "United Kingdom", "iata": "\\N", "icao": "EGCF", "lat": 53.559700012200004, "long": -0.8583329916, "alt": 11, "tz": "0", "dst": "E", "tz_database": "Europe/London", "type": "airport", "source": "OurAirports" }, "geometry": { "type": "Point", "coordinates": [ -0.8583329916, 53.559700012200004 ] } },
{ "type": "Feature", "properties": { "airport_id": 9281, "name": "Newhaven Ferry Port", "city": "Newhaven", "country": "United Kingdom", "iata": "\\N", "icao": "\\N", "lat": 50.790385, "long": 0.054551, "alt": 0, "tz": "0", "dst": "E", "tz_database": "Europe/London", "type": "port", "source": "User" }, "geometry": { "type": "Point", "coordinates": [ 0.054551, 50.790385 ] } },
{ "type": "Feature", "properties": { "airport_id": 9289, "name": "Queen Street Station", "city": "Glasgow", "country": "United Kingdom", "iata": "GLQ", "icao": "\\N", "lat": 55.8622, "long": -4.2512, "alt": 50, "tz": "0", "dst": "E", "tz_database": "Europe/London", "type": "station", "source": "User" }, "geometry": { "type": "Point", "coordinates": [ -4.2512, 55.8622 ] } },
{ "type": "Feature", "properties": { "airport_id": 9355, "name": "Central Station", "city": "Glasgow", "country": "United Kingdom", "iata": "ZGG", "icao": "\\N", "lat": 55.858, "long": -4.258, "alt": 25, "tz": "0", "dst": "E", "tz_database": "Europe/London", "type": "station", "source": "User" }, "geometry": { "type": "Point", "coordinates": [ -4.258, 55.858 ] } },
{ "type": "Feature", "properties": { "airport_id": 9356, "name": "Euston Station", "city": "London", "country": "United Kingdom", "iata": "QQU", "icao": "\\N", "lat": 51.5284, "long": -0.1331, "alt": 89, "tz": "0", "dst": "E", "tz_database": "Europe/London", "type": "station", "source": "User" }, "geometry": { "type": "Point", "coordinates": [ -0.1331, 51.5284 ] } },
{ "type": "Feature", "properties": { "airport_id": 9607, "name": "Bristol Temple Meads Railway Station", "city": "Bristol", "country": "United Kingdom", "iata": "\\N", "icao": "\\N", "lat": 51.449, "long": -2.58, "alt": 10, "tz": "0", "dst": "E", "tz_database": "Europe/London", "type": "station", "source": "User" }, "geometry": { "type": "Point", "coordinates": [ -2.58, 51.449 ] } },
{ "type": "Feature", "properties": { "airport_id": 9615, "name": "Oxford Railway Station", "city": "Oxford", "country": "United Kingdom", "iata": "\\N", "icao": "\\N", "lat": 51.753657, "long": -1.270131, "alt": 600, "tz": "0", "dst": "E", "tz_database": "Europe/London", "type": "station", "source": "User" }, "geometry": { "type": "Point", "coordinates": [ -1.270131, 51.753657 ] } },
{ "type": "Feature", "properties": { "airport_id": 9616, "name": "Wigan Wallgate Railway Station", "city": "Wigan", "country": "United Kingdom", "iata": "\\N", "icao": "\\N", "lat": 53.5449, "long": -2.6339, "alt": 130, "tz": "0", "dst": "E", "tz_database": "Europe/London", "type": "station", "source": "User" }, "geometry": { "type": "Point", "coordinates": [ -2.6339, 53.5449 ] } },
{ "type": "Feature", "properties": { "airport_id": 9649, "name": "York Railway Station", "city": "York", "country": "United Kingdom", "iata": "QQY", "icao": "\\N", "lat": 53.9583, "long": -1.093, "alt": 45, "tz": "0", "dst": "E", "tz_database": "Europe/London", "type": "station", "source": "User" }, "geometry": { "type": "Point", "coordinates": [ -1.093, 53.9583 ] } },
{ "type": "Feature", "properties": { "airport_id": 9650, "name": "Birmingham New Street Railway Station", "city": "Birmingham", "country": "United Kingdom", "iata": "QQN", "icao": "\\N", "lat": 52.4778, "long": -1.8988, "alt": 500, "tz": "0", "dst": "E", "tz_database": "Europe/London", "type": "station", "source": "User" }, "geometry": { "type": "Point", "coordinates": [ -1.8988, 52.4778 ] } },
{ "type": "Feature", "properties": { "airport_id": 9672, "name": "Inverness Railway Station", "city": "Inverness", "country": "United Kingdom", "iata": "ZIV", "icao": "\\N", "lat": 57.48, "long": -4.223, "alt": 53, "tz": "0", "dst": "E", "tz_database": "Europe/London", "type": "station", "source": "User" }, "geometry": { "type": "Point", "coordinates": [ -4.223, 57.48 ] } },
{ "type": "Feature", "properties": { "airport_id": 9674, "name": "Aberdeen Railway Station", "city": "Aberdeen", "country": "United Kingdom", "iata": "ZXA", "icao": "\\N", "lat": 57.1436, "long": -2.0985, "alt": 0, "tz": "0", "dst": "E", "tz_database": "Europe/London", "type": "station", "source": "User" }, "geometry": { "type": "Point", "coordinates": [ -2.0985, 57.1436 ] } },
{ "type": "Feature", "properties": { "airport_id": 9713, "name": "Stirling Railway Station", "city": "Stirling", "country": "United Kingdom", "iata": "\\N", "icao": "\\N", "lat": 56.1201, "long": -3.9351, "alt": 95, "tz": "0", "dst": "E", "tz_database": "Europe/London", "type": "station", "source": "User" }, "geometry": { "type": "Point", "coordinates": [ -3.9351, 56.1201 ] } },
{ "type": "Feature", "properties": { "airport_id": 9714, "name": "Bothwell Railway Station", "city": "Bothwell", "country": "United Kingdom", "iata": "\\N", "icao": "\\N", "lat": 55.8023, "long": -4.0662, "alt": 230, "tz": "0", "dst": "E", "tz_database": "Europe/London", "type": "station", "source": "User" }, "geometry": { "type": "Point", "coordinates": [ -4.0662, 55.8023 ] } },
{ "type": "Feature", "properties": { "airport_id": 9753, "name": "Popham Airfield", "city": "Popham", "country": "United Kingdom", "iata": "\\N", "icao": "EGHP", "lat": 51.193901, "long": -1.23472, "alt": 550, "tz": "0", "dst": "E", "tz_database": "Europe/London", "type": "airport", "source": "OurAirports" }, "geometry": { "type": "Point", "coordinates": [ -1.23472, 51.193901 ] } },
{ "type": "Feature", "properties": { "airport_id": 9860, "name": "City Airport Manchester", "city": "Manchester", "country": "United Kingdom", "iata": "\\N", "icao": "EGCB", "lat": 53.471698761, "long": -2.3897199630700001, "alt": 73, "tz": "0", "dst": "U", "tz_database": "Europe/London", "type": "airport", "source": "OurAirports" }, "geometry": { "type": "Point", "coordinates": [ -2.38971996307, 53.471698761 ] } },
{ "type": "Feature", "properties": { "airport_id": 9861, "name": "Sleap Airport", "city": "Shrewsbury", "country": "United Kingdom", "iata": "\\N", "icao": "EGCV", "lat": 52.833900451699996, "long": -2.7716701030699999, "alt": 275, "tz": "0", "dst": "U", "tz_database": "Europe/London", "type": "airport", "source": "OurAirports" }, "geometry": { "type": "Point", "coordinates": [ -2.77167010307, 52.833900451699996 ] } },
{ "type": "Feature", "properties": { "airport_id": 9862, "name": "Tatenhill Airfield", "city": "Burton-on-Trent", "country": "United Kingdom", "iata": "\\N", "icao": "EGBM", "lat": 52.814701080300004, "long": -1.7611099481600001, "alt": 439, "tz": "0", "dst": "U", "tz_database": "Europe/London", "type": "airport", "source": "OurAirports" }, "geometry": { "type": "Point", "coordinates": [ -1.76110994816, 52.814701080300004 ] } },
{ "type": "Feature", "properties": { "airport_id": 9863, "name": "Full Sutton Airfield", "city": "York", "country": "United Kingdom", "iata": "\\N", "icao": "EGNU", "lat": 53.980598, "long": -0.864722, "alt": 86, "tz": "0", "dst": "U", "tz_database": "Europe/London", "type": "airport", "source": "OurAirports" }, "geometry": { "type": "Point", "coordinates": [ -0.864722, 53.980598 ] } },
{ "type": "Feature", "properties": { "airport_id": 9864, "name": "Sherburn-In-Elmet Airfield", "city": "Leeds", "country": "United Kingdom", "iata": "\\N", "icao": "EGCJ", "lat": 53.788458, "long": -1.216877, "alt": 26, "tz": "0", "dst": "U", "tz_database": "Europe/London", "type": "airport", "source": "OurAirports" }, "geometry": { "type": "Point", "coordinates": [ -1.216877, 53.788458 ] } },
{ "type": "Feature", "properties": { "airport_id": 10126, "name": "Manchester Picadilly Station", "city": "Manchester", "country": "United Kingdom", "iata": "QQM", "icao": "\\N", "lat": 53.4769, "long": -2.2291, "alt": 167, "tz": "0", "dst": "E", "tz_database": "\\N", "type": "station", "source": "User" }, "geometry": { "type": "Point", "coordinates": [ -2.2291, 53.4769 ] } },
{ "type": "Feature", "properties": { "airport_id": 10161, "name": "Shobdon Aerodrome", "city": "Shobdon", "country": "United Kingdom", "iata": "\\N", "icao": "EGBS", "lat": 52.241699218800001, "long": -2.8811099529299997, "alt": 318, "tz": "0", "dst": "E", "tz_database": "\\N", "type": "airport", "source": "OurAirports" }, "geometry": { "type": "Point", "coordinates": [ -2.88110995293, 52.241699218800001 ] } },
{ "type": "Feature", "properties": { "airport_id": 10248, "name": "Ashford International Railway Station", "city": "Ashford", "country": "United Kingdom", "iata": "QDH", "icao": "\\N", "lat": 51.1436, "long": 0.87448, "alt": 136, "tz": "0", "dst": "E", "tz_database": "\\N", "type": "station", "source": "User" }, "geometry": { "type": "Point", "coordinates": [ 0.87448, 51.1436 ] } },
{ "type": "Feature", "properties": { "airport_id": 10250, "name": "Doncaster Railway Station", "city": "Doncaster", "country": "United Kingdom", "iata": "\\N", "icao": "\\N", "lat": 53.5225, "long": -1.1395, "alt": 54, "tz": "0", "dst": "E", "tz_database": "\\N", "type": "station", "source": "User" }, "geometry": { "type": "Point", "coordinates": [ -1.1395, 53.5225 ] } },
{ "type": "Feature", "properties": { "airport_id": 10253, "name": "Ebbsfleet International Railway Station", "city": "Ebbsfleet Valley", "country": "United Kingdom", "iata": "XQE", "icao": "\\N", "lat": 51.443039, "long": 0.320883, "alt": 43, "tz": "0", "dst": "E", "tz_database": "\\N", "type": "station", "source": "User" }, "geometry": { "type": "Point", "coordinates": [ 0.320883, 51.443039 ] } },
{ "type": "Feature", "properties": { "airport_id": 10254, "name": "Stratford International Station", "city": "London", "country": "United Kingdom", "iata": "\\N", "icao": "\\N", "lat": 51.5448, "long": -0.0086, "alt": 18, "tz": "0", "dst": "E", "tz_database": "\\N", "type": "station", "source": "User" }, "geometry": { "type": "Point", "coordinates": [ -0.0086, 51.5448 ] } },
{ "type": "Feature", "properties": { "airport_id": 10414, "name": "Dunbar Railway Station", "city": "Dunbar", "country": "United Kingdom", "iata": "\\N", "icao": "\\N", "lat": 55.9985, "long": -2.5145, "alt": 57, "tz": "0", "dst": "E", "tz_database": "\\N", "type": "station", "source": "User" }, "geometry": { "type": "Point", "coordinates": [ -2.5145, 55.9985 ] } },
{ "type": "Feature", "properties": { "airport_id": 10415, "name": "Berwick-upon-Tweed Railway Station", "city": "Berwick-upon-Tweed", "country": "United Kingdom", "iata": "\\N", "icao": "\\N", "lat": 55.775, "long": -2.011, "alt": 121, "tz": "0", "dst": "E", "tz_database": "\\N", "type": "station", "source": "User" }, "geometry": { "type": "Point", "coordinates": [ -2.011, 55.775 ] } },
{ "type": "Feature", "properties": { "airport_id": 10416, "name": "Chathill Railway Station", "city": "Chathill", "country": "United Kingdom", "iata": "\\N", "icao": "\\N", "lat": 55.537, "long": -1.706, "alt": 104, "tz": "0", "dst": "E", "tz_database": "\\N", "type": "station", "source": "User" }, "geometry": { "type": "Point", "coordinates": [ -1.706, 55.537 ] } },
{ "type": "Feature", "properties": { "airport_id": 10417, "name": "Motherwell Railway Station", "city": "Motherwell", "country": "United Kingdom", "iata": "\\N", "icao": "\\N", "lat": 55.79157, "long": -3.994208, "alt": 273, "tz": "0", "dst": "E", "tz_database": "\\N", "type": "station", "source": "User" }, "geometry": { "type": "Point", "coordinates": [ -3.994208, 55.79157 ] } },
{ "type": "Feature", "properties": { "airport_id": 10418, "name": "Wishaw Railway Station", "city": "Wishaw", "country": "United Kingdom", "iata": "\\N", "icao": "\\N", "lat": 55.7721, "long": -3.9261, "alt": 415, "tz": "0", "dst": "E", "tz_database": "\\N", "type": "station", "source": "User" }, "geometry": { "type": "Point", "coordinates": [ -3.9261, 55.7721 ] } },
{ "type": "Feature", "properties": { "airport_id": 10419, "name": "Carluke Railway Station", "city": "Carluke", "country": "United Kingdom", "iata": "\\N", "icao": "\\N", "lat": 55.73115, "long": -3.8489, "alt": 580, "tz": "0", "dst": "E", "tz_database": "\\N", "type": "station", "source": "User" }, "geometry": { "type": "Point", "coordinates": [ -3.8489, 55.73115 ] } },
{ "type": "Feature", "properties": { "airport_id": 10420, "name": "Haymarket Railway Station", "city": "Edinburgh", "country": "United Kingdom", "iata": "\\N", "icao": "\\N", "lat": 55.9453, "long": -3.2187, "alt": 192, "tz": "0", "dst": "E", "tz_database": "\\N", "type": "station", "source": "User" }, "geometry": { "type": "Point", "coordinates": [ -3.2187, 55.9453 ] } },
{ "type": "Feature", "properties": { "airport_id": 10421, "name": "Carstairs Railway Station", "city": "Carstairs", "country": "United Kingdom", "iata": "\\N", "icao": "\\N", "lat": 55.6913, "long": -3.6692, "alt": 665, "tz": "0", "dst": "E", "tz_database": "\\N", "type": "station", "source": "User" }, "geometry": { "type": "Point", "coordinates": [ -3.6692, 55.6913 ] } },
{ "type": "Feature", "properties": { "airport_id": 10422, "name": "Musselburgh Railway Station", "city": "Musselburgh", "country": "United Kingdom", "iata": "\\N", "icao": "\\N", "lat": 55.9335, "long": -3.0725, "alt": 98, "tz": "0", "dst": "E", "tz_database": "\\N", "type": "station", "source": "User" }, "geometry": { "type": "Point", "coordinates": [ -3.0725, 55.9335 ] } },
{ "type": "Feature", "properties": { "airport_id": 10423, "name": "Wallyford Railway Station", "city": "Wallyford", "country": "United Kingdom", "iata": "\\N", "icao": "\\N", "lat": 55.9405, "long": -3.0147, "alt": 95, "tz": "0", "dst": "E", "tz_database": "\\N", "type": "station", "source": "User" }, "geometry": { "type": "Point", "coordinates": [ -3.0147, 55.9405 ] } },
{ "type": "Feature", "properties": { "airport_id": 10424, "name": "Prestonpans Railway Station", "city": "Prestonpans", "country": "United Kingdom", "iata": "\\N", "icao": "\\N", "lat": 55.9529, "long": -2.975, "alt": 103, "tz": "0", "dst": "E", "tz_database": "\\N", "type": "station", "source": "User" }, "geometry": { "type": "Point", "coordinates": [ -2.975, 55.9529 ] } },
{ "type": "Feature", "properties": { "airport_id": 10425, "name": "Longniddry Railway Station", "city": "Longniddry", "country": "United Kingdom", "iata": "\\N", "icao": "\\N", "lat": 55.9763, "long": -2.8884, "alt": 101, "tz": "0", "dst": "E", "tz_database": "\\N", "type": "station", "source": "User" }, "geometry": { "type": "Point", "coordinates": [ -2.8884, 55.9763 ] } },
{ "type": "Feature", "properties": { "airport_id": 10426, "name": "Drem Railway Station", "city": "Drem", "country": "United Kingdom", "iata": "\\N", "icao": "\\N", "lat": 56.0051, "long": -2.7854, "alt": 90, "tz": "0", "dst": "E", "tz_database": "\\N", "type": "station", "source": "User" }, "geometry": { "type": "Point", "coordinates": [ -2.7854, 56.0051 ] } },
{ "type": "Feature", "properties": { "airport_id": 10427, "name": "North Berwick Railway Station", "city": "North Berwick", "country": "United Kingdom", "iata": "\\N", "icao": "\\N", "lat": 56.0566, "long": -2.731, "alt": 78, "tz": "0", "dst": "E", "tz_database": "\\N", "type": "station", "source": "User" }, "geometry": { "type": "Point", "coordinates": [ -2.731, 56.0566 ] } },
{ "type": "Feature", "properties": { "airport_id": 10428, "name": "Alnmouth Railway station", "city": "Alnmouth", "country": "United Kingdom", "iata": "\\N", "icao": "\\N", "lat": 55.392, "long": -1.636, "alt": 120, "tz": "0", "dst": "E", "tz_database": "\\N", "type": "station", "source": "User" }, "geometry": { "type": "Point", "coordinates": [ -1.636, 55.392 ] } },
{ "type": "Feature", "properties": { "airport_id": 10429, "name": "Acklington Railway Station", "city": "Acklington", "country": "United Kingdom", "iata": "\\N", "icao": "\\N", "lat": 55.307, "long": -1.652, "alt": 137, "tz": "0", "dst": "E", "tz_database": "\\N", "type": "station", "source": "User" }, "geometry": { "type": "Point", "coordinates": [ -1.652, 55.307 ] } },
{ "type": "Feature", "properties": { "airport_id": 10430, "name": "Widdrington Railway Station", "city": "Widdrington", "country": "United Kingdom", "iata": "\\N", "icao": "\\N", "lat": 55.241, "long": -1.616, "alt": 155, "tz": "0", "dst": "E", "tz_database": "\\N", "type": "station", "source": "User" }, "geometry": { "type": "Point", "coordinates": [ -1.616, 55.241 ] } },
{ "type": "Feature", "properties": { "airport_id": 10431, "name": "Pegswood Railway Station", "city": "Pegswood", "country": "United Kingdom", "iata": "\\N", "icao": "\\N", "lat": 55.178, "long": -1.644, "alt": 183, "tz": "0", "dst": "E", "tz_database": "\\N", "type": "station", "source": "User" }, "geometry": { "type": "Point", "coordinates": [ -1.644, 55.178 ] } },
{ "type": "Feature", "properties": { "airport_id": 10432, "name": "Morpeth Railway Station", "city": "Morpeth", "country": "United Kingdom", "iata": "\\N", "icao": "\\N", "lat": 55.1622, "long": -1.6829, "alt": 177, "tz": "0", "dst": "E", "tz_database": "\\N", "type": "station", "source": "User" }, "geometry": { "type": "Point", "coordinates": [ -1.6829, 55.1622 ] } },
{ "type": "Feature", "properties": { "airport_id": 10433, "name": "Cramlington Railway Station", "city": "Cramlington", "country": "United Kingdom", "iata": "\\N", "icao": "\\N", "lat": 55.088, "long": -1.599, "alt": 237, "tz": "0", "dst": "E", "tz_database": "\\N", "type": "station", "source": "User" }, "geometry": { "type": "Point", "coordinates": [ -1.599, 55.088 ] } },
{ "type": "Feature", "properties": { "airport_id": 10434, "name": "Manors Railway Station", "city": "Newcastle Upon Tyne", "country": "United Kingdom", "iata": "\\N", "icao": "\\N", "lat": 54.973, "long": -1.605, "alt": 111, "tz": "0", "dst": "E", "tz_database": "\\N", "type": "station", "source": "User" }, "geometry": { "type": "Point", "coordinates": [ -1.605, 54.973 ] } },
{ "type": "Feature", "properties": { "airport_id": 10435, "name": "Chester-le-Street Railway Station", "city": "Chester-le-Street", "country": "United Kingdom", "iata": "\\N", "icao": "\\N", "lat": 54.855, "long": -1.578, "alt": 119, "tz": "0", "dst": "E", "tz_database": "\\N", "type": "station", "source": "User" }, "geometry": { "type": "Point", "coordinates": [ -1.578, 54.855 ] } },
{ "type": "Feature", "properties": { "airport_id": 10436, "name": "Durham Railway Station", "city": "Durham", "country": "United Kingdom", "iata": "\\N", "icao": "\\N", "lat": 54.7798, "long": -1.5815, "alt": 238, "tz": "0", "dst": "E", "tz_database": "\\N", "type": "station", "source": "User" }, "geometry": { "type": "Point", "coordinates": [ -1.5815, 54.7798 ] } },
{ "type": "Feature", "properties": { "airport_id": 10437, "name": "Darlington Railway Station", "city": "Darlington", "country": "United Kingdom", "iata": "\\N", "icao": "\\N", "lat": 54.5209, "long": -1.5464, "alt": 170, "tz": "0", "dst": "E", "tz_database": "\\N", "type": "station", "source": "User" }, "geometry": { "type": "Point", "coordinates": [ -1.5464, 54.5209 ] } },
{ "type": "Feature", "properties": { "airport_id": 10438, "name": "Northallerton Railway Station", "city": "Northallerton", "country": "United Kingdom", "iata": "\\N", "icao": "\\N", "lat": 54.3327, "long": -1.4415, "alt": 140, "tz": "0", "dst": "E", "tz_database": "\\N", "type": "station", "source": "User" }, "geometry": { "type": "Point", "coordinates": [ -1.4415, 54.3327 ] } },
{ "type": "Feature", "properties": { "airport_id": 10439, "name": "Thirsk Railway Station", "city": "Thirsk", "country": "United Kingdom", "iata": "\\N", "icao": "\\N", "lat": 54.22824, "long": -1.37262, "alt": 108, "tz": "0", "dst": "E", "tz_database": "\\N", "type": "station", "source": "User" }, "geometry": { "type": "Point", "coordinates": [ -1.37262, 54.22824 ] } },
{ "type": "Feature", "properties": { "airport_id": 10440, "name": "Retford Railway Station", "city": "Retford", "country": "United Kingdom", "iata": "\\N", "icao": "\\N", "lat": 53.315, "long": -0.948, "alt": 71, "tz": "0", "dst": "E", "tz_database": "\\N", "type": "station", "source": "User" }, "geometry": { "type": "Point", "coordinates": [ -0.948, 53.315 ] } },
{ "type": "Feature", "properties": { "airport_id": 10441, "name": "North Gate Railway Station", "city": "Newark", "country": "United Kingdom", "iata": "\\N", "icao": "\\N", "lat": 53.081, "long": -0.799, "alt": 46, "tz": "0", "dst": "E", "tz_database": "\\N", "type": "station", "source": "User" }, "geometry": { "type": "Point", "coordinates": [ -0.799, 53.081 ] } },
{ "type": "Feature", "properties": { "airport_id": 10442, "name": "Grantham Railway Station", "city": "Grantham", "country": "United Kingdom", "iata": "\\N", "icao": "\\N", "lat": 52.906, "long": -0.642, "alt": 213, "tz": "0", "dst": "E", "tz_database": "\\N", "type": "station", "source": "User" }, "geometry": { "type": "Point", "coordinates": [ -0.642, 52.906 ] } },
{ "type": "Feature", "properties": { "airport_id": 10443, "name": "Huntingdon Railway Station", "city": "Huntingdon", "country": "United Kingdom", "iata": "\\N", "icao": "\\N", "lat": 52.329, "long": -0.192, "alt": 72, "tz": "0", "dst": "E", "tz_database": "\\N", "type": "station", "source": "User" }, "geometry": { "type": "Point", "coordinates": [ -0.192, 52.329 ] } },
{ "type": "Feature", "properties": { "airport_id": 10444, "name": "St. Neots Railway Station", "city": "St. Neots", "country": "United Kingdom", "iata": "\\N", "icao": "\\N", "lat": 52.232, "long": -0.247, "alt": 100, "tz": "0", "dst": "E", "tz_database": "\\N", "type": "station", "source": "User" }, "geometry": { "type": "Point", "coordinates": [ -0.247, 52.232 ] } },
{ "type": "Feature", "properties": { "airport_id": 10445, "name": "Sandy Railway Station", "city": "Sandy", "country": "United Kingdom", "iata": "\\N", "icao": "\\N", "lat": 52.125, "long": -0.281, "alt": 109, "tz": "0", "dst": "E", "tz_database": "\\N", "type": "station", "source": "User" }, "geometry": { "type": "Point", "coordinates": [ -0.281, 52.125 ] } },
{ "type": "Feature", "properties": { "airport_id": 10446, "name": "Biggleswade Railway Station", "city": "Biggleswade", "country": "United Kingdom", "iata": "\\N", "icao": "\\N", "lat": 52.085, "long": -0.261, "alt": 110, "tz": "0", "dst": "E", "tz_database": "\\N", "type": "station", "source": "User" }, "geometry": { "type": "Point", "coordinates": [ -0.261, 52.085 ] } },
{ "type": "Feature", "properties": { "airport_id": 10447, "name": "Arlesey Railway Station", "city": "Arlesey", "country": "United Kingdom", "iata": "\\N", "icao": "\\N", "lat": 52.026, "long": -0.266, "alt": 124, "tz": "0", "dst": "E", "tz_database": "\\N", "type": "station", "source": "User" }, "geometry": { "type": "Point", "coordinates": [ -0.266, 52.026 ] } },
{ "type": "Feature", "properties": { "airport_id": 10448, "name": "Hitchin Railway Station", "city": "Hitchin", "country": "United Kingdom", "iata": "\\N", "icao": "\\N", "lat": 51.953, "long": -0.263, "alt": 236, "tz": "0", "dst": "E", "tz_database": "\\N", "type": "station", "source": "User" }, "geometry": { "type": "Point", "coordinates": [ -0.263, 51.953 ] } },
{ "type": "Feature", "properties": { "airport_id": 10449, "name": "Knebworth Railway Station", "city": "Knebworth", "country": "United Kingdom", "iata": "\\N", "icao": "\\N", "lat": 51.867, "long": -0.187, "alt": 380, "tz": "0", "dst": "E", "tz_database": "\\N", "type": "station", "source": "User" }, "geometry": { "type": "Point", "coordinates": [ -0.187, 51.867 ] } },
{ "type": "Feature", "properties": { "airport_id": 10450, "name": "Welwyn North Railway Station", "city": "Welwyn", "country": "United Kingdom", "iata": "\\N", "icao": "\\N", "lat": 51.824, "long": -0.192, "alt": 267, "tz": "0", "dst": "E", "tz_database": "\\N", "type": "station", "source": "User" }, "geometry": { "type": "Point", "coordinates": [ -0.192, 51.824 ] } },
{ "type": "Feature", "properties": { "airport_id": 10451, "name": "Welwyn Garden City Railway Station", "city": "Welwyn Garden City", "country": "United Kingdom", "iata": "\\N", "icao": "\\N", "lat": 51.801, "long": -0.204, "alt": 267, "tz": "0", "dst": "E", "tz_database": "\\N", "type": "station", "source": "User" }, "geometry": { "type": "Point", "coordinates": [ -0.204, 51.801 ] } },
{ "type": "Feature", "properties": { "airport_id": 10452, "name": "Hatfield Railway Station", "city": "Hatfield", "country": "United Kingdom", "iata": "\\N", "icao": "\\N", "lat": 51.764, "long": -0.216, "alt": 346, "tz": "0", "dst": "E", "tz_database": "\\N", "type": "station", "source": "User" }, "geometry": { "type": "Point", "coordinates": [ -0.216, 51.764 ] } },
{ "type": "Feature", "properties": { "airport_id": 10453, "name": "Welham Green Railway Station", "city": "Welham Green", "country": "United Kingdom", "iata": "\\N", "icao": "\\N", "lat": 51.736, "long": -0.211, "alt": 304, "tz": "0", "dst": "E", "tz_database": "\\N", "type": "station", "source": "User" }, "geometry": { "type": "Point", "coordinates": [ -0.211, 51.736 ] } },
{ "type": "Feature", "properties": { "airport_id": 10454, "name": "Brookmans Park Railway Station", "city": "Brookmans Park", "country": "United Kingdom", "iata": "\\N", "icao": "\\N", "lat": 51.721, "long": -0.205, "alt": 302, "tz": "0", "dst": "E", "tz_database": "\\N", "type": "station", "source": "User" }, "geometry": { "type": "Point", "coordinates": [ -0.205, 51.721 ] } },
{ "type": "Feature", "properties": { "airport_id": 10455, "name": "Hadley Wood Railway Station", "city": "Hadley Wood", "country": "United Kingdom", "iata": "\\N", "icao": "\\N", "lat": 51.6688, "long": -0.1761, "alt": 206, "tz": "0", "dst": "E", "tz_database": "\\N", "type": "station", "source": "User" }, "geometry": { "type": "Point", "coordinates": [ -0.1761, 51.6688 ] } },
{ "type": "Feature", "properties": { "airport_id": 10456, "name": "New Barnet Railway Station", "city": "Barnet", "country": "United Kingdom", "iata": "\\N", "icao": "\\N", "lat": 51.6487, "long": -0.1733, "alt": 213, "tz": "0", "dst": "E", "tz_database": "\\N", "type": "station", "source": "User" }, "geometry": { "type": "Point", "coordinates": [ -0.1733, 51.6487 ] } },
{ "type": "Feature", "properties": { "airport_id": 10457, "name": "Oakleigh Park Railway Station", "city": "Oakleigh Park", "country": "United Kingdom", "iata": "\\N", "icao": "\\N", "lat": 51.6379, "long": -0.1667, "alt": 250, "tz": "0", "dst": "E", "tz_database": "\\N", "type": "station", "source": "User" }, "geometry": { "type": "Point", "coordinates": [ -0.1667, 51.6379 ] } },
{ "type": "Feature", "properties": { "airport_id": 10458, "name": "New Southgate Railway Station", "city": "Enfield", "country": "United Kingdom", "iata": "\\N", "icao": "\\N", "lat": 51.6142, "long": -0.1432, "alt": 192, "tz": "0", "dst": "E", "tz_database": "\\N", "type": "station", "source": "User" }, "geometry": { "type": "Point", "coordinates": [ -0.1432, 51.6142 ] } },